,district,locality,latitude,longitude,id,zip_code,property_sub_type,property_type,price,nb_bedrooms,living_area,surface_of_the_plot,nb_facades,state_of_building,fireplace,equipped_kitchen,garden,garden_surface,terrace,terrace_surface,furnished,swimming_pool
0,Courtrai,Kortrijk,50.82002749999999,3.2938967,20362957,8500,House,HOUSE,164500,3,120,94,2,Good,0,1,1,40,1,20,0,0
1,Liège,Seraing,50.6175416,5.5003236,20363431,4101,House,HOUSE,199000,5,180,165,2,Good,0,1,1,60,1,56,0,0
2,Liège,FLÉMALLE,50.5986442,5.417339699999999,20366377,4400,House,HOUSE,195000,3,112,900,3,To be done up,0,1,1,557,1,106,0,0
3,Charleroi,Fleurus,50.4448376,4.5177716,20364877,6220,House,HOUSE,179000,3,132,968,3,To be done up,0,0,1,880,1,105,0,0
4,Liège,Montegnée,50.6349411,5.513929399999999,20363055,4420,House,HOUSE,159000,3,126,275,3,To renovate,0,0,1,185,1,30,0,0
5,Audenarde,RONSE,50.7494677,3.5837386,20362574,9600,House,HOUSE,139000,2,129,307,2,To renovate,0,1,1,231,0,,0,0
6,Huy,Huy,50.5302683,5.219736399999999,20365011,4500,House,HOUSE,99900,3,125,78,2,To renovate,0,1,0,,1,8,0,0
7,Audenarde,Ronse,50.7423234,3.6154513,20364435,9600,House,HOUSE,129000,4,142,90,2,To renovate,0,0,1,3,0,,0,0
8,Charleroi,Les Bons Villers,50.5228613,4.4752019,20367345,6210,House,HOUSE,179000,2,76,230,3,Good,1,0,0,,1,14,0,0
9,Tournai,Hérinnes,50.69796299999999,3.3619659,20367136,7742,House,HOUSE,179000,5,174,510,2,To renovate,0,0,1,405,1,27,0,0
10,Mons,Mons,50.4519275,3.961102699999999,20317148,7000,House,HOUSE,165000,2,75,112,2,To be done up,0,0,1,37,1,11,0,0
11,Liège,Seraing,50.60046999999999,5.5073408,20363662,4100,House,HOUSE,99900,4,125,250,3,To be done up,0,1,1,175,0,,0,0
12,Liège,SAINT-NICOLAS,50.62259599999999,5.5303378,20362913,4420,House,HOUSE,199000,3,145,209,2,Good,0,1,1,135,1,25,0,0
13,Liège,Saint-Nicolas,50.6411209,5.5201756,20362851,4420,Mixed_Use_Building,HOUSE,199000,2,131,280,2,Good,0,1,1,150,0,,0,0
14,Audenarde,KLUISBERGEN,50.7791237,3.4913872,20354783,9690,House,HOUSE,195000,3,119,354,3,Good,0,0,1,262,0,,0,0
15,Liège,Seraing,50.58503109999999,5.5045852,20365500,4100,Mixed_Use_Building,HOUSE,199900,2,120,250,2,Good,0,1,1,135,0,,0,0
16,Neufchâteau,Bouillon,49.7954735,5.069953,20361941,6830,House,HOUSE,199000,5,200,72,2,To renovate,0,0,0,,0,,0,0
17,Liège,Hermée,50.7153313,5.618358499999999,20350047,4680,House,HOUSE,179000,2,89,448,3,Good,0,0,1,300,0,,0,0
18,Courtrai,Anzegem,50.851872,3.4405556,20362771,8570,House,HOUSE,169000,3,130,711,4,Good,0,0,0,,0,,0,0
19,Audenarde,Ronse,50.7529489,3.5917563,20364797,9600,House,HOUSE,185000,2,136,140,2,Good,0,1,0,,1,30,0,0
20,Termonde,WETTEREN,50.9862063,3.841288,20360618,9230,House,HOUSE,185000,2,97,140,2,Good,0,0,1,85,0,,0,0
21,Huy,Hamoir Filot,50.42556949999999,5.565379699999999,20363850,4181,House,HOUSE,75000,2,72,37,3,To restore,0,0,0,,0,,0,0
22,Dinant,Miécret,50.3676834,5.2503702,20363578,5370,House,HOUSE,160000,4,205,743,2,To renovate,0,0,1,743,0,,0,0
23,Liège,Seraing,50.6050232,5.515297899999999,20361960,4100,Mixed_Use_Building,HOUSE,179000,5,288,105,2,To be done up,0,0,0,,0,,0,0
24,Liège,Trooz,50.57997959999999,5.6745868,20350063,4870,House,HOUSE,184900,2,78,240,3,Good,0,1,1,96,1,15,0,0
25,Neufchâteau,LIBIN,49.9819557,5.2546533,20354794,6890,House,HOUSE,155000,3,145,364,2,To renovate,0,0,0,,0,,0,0
26,Liège,Liège,50.6733561,5.664621299999999,20354977,4020,House,HOUSE,157000,2,118,145,2,Good,0,1,1,54,1,54,1,0
27,Liège,Liège,50.6485034,5.6341007,20366399,4020,House,HOUSE,159000,3,135,115,2,Good,0,0,0,,1,40,0,0
28,Saint-Nicolas,Sint-Niklaas,51.1561526,4.148761599999999,20362799,9100,Mixed_Use_Building,HOUSE,170000,2,67,83,,Good,0,1,0,,1,15,0,0
29,Turnhout,HERENTALS,51.1713703,4.843203,20365971,2200,House,HOUSE,180000,2,140,290,3,To renovate,0,0,0,,0,,0,0
30,Courtrai,Kortrijk,50.82002749999999,3.2938967,20362957,8500,House,HOUSE,164500,3,120,94,2,Good,0,1,1,40,1,20,0,0
31,Liège,Seraing,50.6175416,5.5003236,20363431,4101,House,HOUSE,199000,5,180,165,2,Good,0,1,1,60,1,56,0,0
32,Liège,FLÉMALLE,50.5986442,5.417339699999999,20366377,4400,House,HOUSE,195000,3,112,900,3,To be done up,0,1,1,557,1,106,0,0
33,Charleroi,Fleurus,50.4448376,4.5177716,20364877,6220,House,HOUSE,179000,3,132,968,3,To be done up,0,0,1,880,1,105,0,0
34,Liège,Montegnée,50.6349411,5.513929399999999,20363055,4420,House,HOUSE,159000,3,126,275,3,To renovate,0,0,1,185,1,30,0,0
35,Audenarde,RONSE,50.7494677,3.5837386,20362574,9600,House,HOUSE,139000,2,129,307,2,To renovate,0,1,1,231,0,,0,0
36,Huy,Huy,50.5302683,5.219736399999999,20365011,4500,House,HOUSE,99900,3,125,78,2,To renovate,0,1,0,,1,8,0,0
37,Audenarde,Ronse,50.7423234,3.6154513,20364435,9600,House,HOUSE,129000,4,142,90,2,To renovate,0,0,1,3,0,,0,0
38,Charleroi,Les Bons Villers,50.5228613,4.4752019,20367345,6210,House,HOUSE,179000,2,76,230,3,Good,1,0,0,,1,14,0,0
39,Tournai,Hérinnes,50.69796299999999,3.3619659,20367136,7742,House,HOUSE,179000,5,174,510,2,To renovate,0,0,1,405,1,27,0,0
40,Mons,Mons,50.4519275,3.961102699999999,20317148,7000,House,HOUSE,165000,2,75,112,2,To be done up,0,0,1,37,1,11,0,0
41,Liège,Seraing,50.60046999999999,5.5073408,20363662,4100,House,HOUSE,99900,4,125,250,3,To be done up,0,1,1,175,0,,0,0
42,Liège,SAINT-NICOLAS,50.62259599999999,5.5303378,20362913,4420,House,HOUSE,199000,3,145,209,2,Good,0,1,1,135,1,25,0,0
43,Liège,Saint-Nicolas,50.6411209,5.5201756,20362851,4420,Mixed_Use_Building,HOUSE,199000,2,131,280,2,Good,0,1,1,150,0,,0,0
44,Audenarde,KLUISBERGEN,50.7791237,3.4913872,20354783,9690,House,HOUSE,195000,3,119,354,3,Good,0,0,1,262,0,,0,0
45,Liège,Seraing,50.58503109999999,5.5045852,20365500,4100,Mixed_Use_Building,HOUSE,199900,2,120,250,2,Good,0,1,1,135,0,,0,0
46,Neufchâteau,Bouillon,49.7954735,5.069953,20361941,6830,House,HOUSE,199000,5,200,72,2,To renovate,0,0,0,,0,,0,0
47,Liège,Hermée,50.7153313,5.618358499999999,20350047,4680,House,HOUSE,179000,2,89,448,3,Good,0,0,1,300,0,,0,0
48,Courtrai,Anzegem,50.851872,3.4405556,20362771,8570,House,HOUSE,169000,3,130,711,4,Good,0,0,0,,0,,0,0
49,Audenarde,Ronse,50.7529489,3.5917563,20364797,9600,House,HOUSE,185000,2,136,140,2,Good,0,1,0,,1,30,0,0
50,Termonde,WETTEREN,50.9862063,3.841288,20360618,9230,House,HOUSE,185000,2,97,140,2,Good,0,0,1,85,0,,0,0
51,Huy,Hamoir Filot,50.42556949999999,5.565379699999999,20363850,4181,House,HOUSE,75000,2,72,37,3,To restore,0,0,0,,0,,0,0
52,Dinant,Miécret,50.3676834,5.2503702,20363578,5370,House,HOUSE,160000,4,205,743,2,To renovate,0,0,1,743,0,,0,0
53,Liège,Seraing,50.6050232,5.515297899999999,20361960,4100,Mixed_Use_Building,HOUSE,179000,5,288,105,2,To be done up,0,0,0,,0,,0,0
54,Liège,Trooz,50.57997959999999,5.6745868,20350063,4870,House,HOUSE,184900,2,78,240,3,Good,0,1,1,96,1,15,0,0
55,Neufchâteau,LIBIN,49.9819557,5.2546533,20354794,6890,House,HOUSE,155000,3,145,364,2,To renovate,0,0,0,,0,,0,0
56,Liège,Liège,50.6733561,5.664621299999999,20354977,4020,House,HOUSE,157000,2,118,145,2,Good,0,1,1,54,1,54,1,0
57,Liège,Liège,50.6485034,5.6341007,20366399,4020,House,HOUSE,159000,3,135,115,2,Good,0,0,0,,1,40,0,0
58,Saint-Nicolas,Sint-Niklaas,51.1561526,4.148761599999999,20362799,9100,Mixed_Use_Building,HOUSE,170000,2,67,83,,Good,0,1,0,,1,15,0,0
59,Turnhout,HERENTALS,51.1713703,4.843203,20365971,2200,House,HOUSE,180000,2,140,290,3,To renovate,0,0,0,,0,,0,0
60,Bastogne,Sainte-Ode,50.0433725,5.564789999999999,20348249,6680,House,HOUSE,165000,2,91,4810,4,To renovate,0,0,1,4810,0,,0,0
61,Huy,OCQUIER,50.39632719999999,5.3960807,20364789,4560,House,HOUSE,99000,1,56,174,3,To be done up,0,0,0,,0,,0,0
62,Saint-Nicolas,TEMSE,51.1295386,4.2131987,20363969,9140,House,HOUSE,159000,2,86,81,2,To renovate,0,0,1,15,0,,0,0
63,Dinant,Rochefort,50.1631891,5.2664519,20364184,5580,House,HOUSE,179000,5,156,120,2,Good,0,1,0,,0,,0,0
64,Anvers,DEURNE,51.2251483,4.4757104,20359317,2100,Mixed_Use_Building,HOUSE,179000,2,76,501,2,To be done up,0,1,0,,0,,0,0
65,Charleroi,Lodelinsart,50.42960230000001,4.4469647,20354393,6042,House,HOUSE,135000,2,106,198,2,To be done up,0,0,1,122,1,30,0,0
66,Saint-Nicolas,KIELDRECHT,51.2918365,4.165814399999999,20353287,9130,House,HOUSE,185000,3,127,90,2,Good,0,1,1,31,0,,0,0
67,Dinant,Hastière,50.2200555,4.8239157,20362329,5540,House,HOUSE,145000,3,85,865,4,Good,1,0,1,865,0,,0,0
68,Alost,Nieuwerkerken,50.9208894,3.9886609,20359406,9320,House,HOUSE,139000,3,125,590,3,To renovate,0,1,1,430,0,,0,0
69,Liège,Saint-Nicolas,50.6353415,5.5157022,20355846,4420,Town_House,HOUSE,180000,3,120,420,4,To renovate,0,0,1,220,1,35,0,0
70,Audenarde,RONSE,50.7341868,3.6033449,20366109,9600,House,HOUSE,158000,2,125,170,2,Good,0,0,0,,0,,0,0
71,Liège,Aywaille,50.4738558,5.6759729,20366392,4920,Mixed_Use_Building,HOUSE,169000,2,110,85,2,Just renovated,0,1,0,,1,14,1,0
72,Anvers,Sint-Lenaarts,51.3369673,4.658773399999999,20360956,2960,House,HOUSE,199000,1,155,745,4,To renovate,0,0,0,,0,,0,0
73,Charleroi,Courcelles Trazegnies,50.4639481,4.3263454,20348940,6183,House,HOUSE,169900,3,180,580,3,To renovate,0,0,1,400,0,,0,0
74,Liège,Aywaille,50.4764298,5.7178191,20348003,4920,House,HOUSE,170000,4,86,100,2,To be done up,0,0,1,280,0,,0,0
75,Philippeville,LANEFFE,50.2800089,4.4966113,20362886,5651,House,HOUSE,135000,2,73,1123,4,To renovate,0,0,0,,0,,0,0
76,Liège,ROCOURT,50.6780604,5.546658499999999,20363152,4000,House,HOUSE,180000,2,174,,2,To be done up,0,0,1,80,1,13,0,0
77,Liège,Liège Grivegnée,50.62703519999999,5.6343973,20363640,4030,House,HOUSE,199999,4,250,138,2,To be done up,0,0,0,,1,27,0,0
78,Turnhout,HERENTALS,51.1778749,4.8299923,20359184,2200,House,HOUSE,195000,2,113,80,2,To renovate,0,0,0,,0,,0,0
79,Verviers,Spa,50.4866622,5.86001,20343630,4900,House,HOUSE,131500,1,47,268,3,To be done up,0,0,1,25,1,10,0,0
80,Alost,HELDERGEM,50.8738969,3.9597338,20354758,9450,House,HOUSE,147000,3,150,459,2,To renovate,0,0,0,,0,,0,0
81,Verviers,Stembert,50.5933479,5.8824276,20366052,4801,House,HOUSE,179000,3,97,180,2,Good,0,0,1,125,1,9,0,0
82,Roulers,Hooglede,50.9783,3.0951748,20365802,8830,House,HOUSE,179000,3,110,741,,To be done up,0,1,0,,0,,0,0
83,Liège,Liège,50.63754669999999,5.5939715,20365928,4020,Town_House,HOUSE,180000,3,196,113,3,Good,0,1,0,,1,9,0,0
84,Alost,AALST,50.943217,4.0503638,20365601,9300,House,HOUSE,199000,3,85,50,2,Just renovated,0,0,0,,1,9,0,0
85,Charleroi,Charleroi,50.4726547,4.4351961,20363098,6041,House,HOUSE,119000,3,115,140,2,Good,0,0,0,,1,20,0,0
86,Dinant,Somme-Leuze,50.29591449999999,5.3184176,20363530,5377,Country_Cottage,HOUSE,125000,3,66,66,,Good,1,0,0,,1,16,0,0
87,Liège,Vottem,50.671995,5.5844489,20361963,4041,House,HOUSE,190000,2,97,704,3,To be done up,0,0,1,582,1,35,0,0
88,Liège,Seraing,50.6020663,5.4941038,20341783,4100,House,HOUSE,200000,4,143,247,2,Good,0,1,1,100,1,62,0,0
89,Turnhout,HERENTALS,51.1788692,4.8420307,20359153,2200,House,HOUSE,175000,2,91,107,2,To renovate,0,0,0,,0,,0,0
90,Tielt,Tielt (8700),50.9898708,3.3328787,20357974,8700,House,HOUSE,195000,3,141,148,,To be done up,0,1,0,,0,,0,0
91,Liège,Seraing,50.6164912,5.5004103,20345957,4101,House,HOUSE,109900,5,140,53,2,To be done up,0,1,0,,0,,0,0
92,Liège,Oupeye,50.70581,5.646380799999999,20347135,4680,House,HOUSE,159000,2,87,42,2,As new,0,1,0,,0,,0,0
93,Roulers,Ledegem,50.8588902,3.1258265,20346470,8880,House,HOUSE,199000,4,350,272,2,To renovate,0,0,0,,1,16,0,0
94,Dinant,Villers-sur-lesse,50.15230460000001,5.113050800000001,20347671,5580,House,HOUSE,99000,4,126,202,4,To renovate,0,1,1,60,1,25,0,0
95,Charleroi,Pont-à-Celles,50.5046061,4.3751655,20347094,6230,Town_House,HOUSE,199000,2,140,229,3,Good,0,1,1,150,0,,0,0
96,Liège,OUGRÉE,50.5976915,5.5334041,20362915,4102,House,HOUSE,89000,1,55,45,2,Good,0,0,0,,1,14,0,0
97,Audenarde,RONSE,50.7564427,3.589488,20362464,9600,House,HOUSE,139000,2,139,260,,To be done up,0,0,0,,0,,0,0
98,Marche-En-Famenne,Hotton,50.2478379,5.4411985,20363522,6990,House,HOUSE,180000,3,100,550,,To restore,0,0,0,,0,,0,0
99,Malines,Berlaar,51.122338,4.657594,20361863,2590,House,HOUSE,199000,3,134,317,,To renovate,0,0,0,,0,,0,0
100,Anvers,ANTWERPEN,51.22191770000001,4.4121442,20355109,2000,Mixed_Use_Building,HOUSE,199000,1,54,432,2,Good,0,1,0,,0,,0,0
101,Liège,Herstal,50.6579309,5.6209058,20343273,4040,Apartment_Block,HOUSE,199000,3,183,120,2,Good,0,0,0,,1,27,0,0
102,Liège,Herstal,50.6727356,5.5869111,20340823,4041,House,HOUSE,119000,2,134,189,3,To renovate,1,0,1,84,0,,0,0
103,Ath,Ath,50.6205781,3.7139966,20362024,7812,House,HOUSE,186000,2,154,726,4,Good,0,0,0,,0,,0,0
104,Marche-En-Famenne,Marche-en-Famenne,50.2020934,5.3190351,20363527,6900,House,HOUSE,195000,3,150,348,,Good,0,0,0,,0,,0,0
105,Turnhout,GEEL,51.1673134,5.0055839,20359088,2440,House,HOUSE,185000,4,134,278,3,To renovate,0,0,0,,0,,0,0
106,Liège,Seraing,50.5966112,5.4903517,20339513,4100,House,HOUSE,169000,3,125,226,2,Good,0,0,1,145,1,19,0,0
107,Marche-En-Famenne,La Roche-en-Ardenne,50.1782619,5.5764472,20366496,6980,Apartment_Block,HOUSE,150000,5,220,169,2,To restore,0,0,0,,1,20,0,0
108,Courtrai,Kortrijk,50.8328233,3.2614262,20349524,8500,House,HOUSE,115000,3,183,65,2,To renovate,0,0,0,,0,,0,0
109,Mons,Tertre,50.46697169999999,3.8095935,20350664,7333,House,HOUSE,175000,3,153,339,2,Good,1,1,1,1,1,1,0,0
110,Louvain,ZICHEM,51.0011857,4.985380999999999,20358803,3271,House,HOUSE,175000,3,153,220,2,To renovate,0,0,0,,0,,0,0
111,Huy,HUY,50.52416729999999,5.2369945,20343255,4500,House,HOUSE,199000,3,165,135,2,Good,0,0,0,,1,30,0,0
112,Liège,Seraing,50.6020773,5.5395454,20343991,4102,House,HOUSE,169000,3,82,382,2,Good,0,1,1,128,1,13,0,0
113,Liège,Liège,50.64085110000001,5.5446027,20344101,4000,House,HOUSE,170000,1,65,140,3,Good,0,1,0,,1,40,0,0
114,Liège,Herstal Vottem,50.6683906,5.597715,20344100,4041,House,HOUSE,189000,4,128,187,3,Good,0,0,1,80,1,16,1,0
115,Audenarde,Kluisbergen,50.770509,3.4828207,20360768,9690,House,HOUSE,190000,4,250,168,,To renovate,0,0,1,50,0,,0,0
116,Neufchâteau,Libin Smuid,50.0187354,5.266089699999999,20338859,6890,House,HOUSE,199000,2,120,568,4,Good,0,0,1,300,1,20,0,0
117,Tournai,Antoing,50.5666331,3.4491445,20366122,7640,Mixed_Use_Building,HOUSE,140000,2,235,110,2,To renovate,0,0,0,,1,5,0,0
118,Liège,Liège,50.63784159999999,5.5394681,20344482,4000,House,HOUSE,175000,2,95,110,3,Good,0,1,1,45,0,,0,0
119,Virton,Saint-Léger Meixle-Tige,49.61709,5.720689999999999,20336871,6747,House,HOUSE,185000,2,283,450,2,To be done up,0,0,1,450,0,,0,0
120,Roulers,Sint-Eloois-Winkel,50.8757666,3.1840331,20353755,8880,House,HOUSE,169000,3,118,270,2,To renovate,0,0,0,,0,,0,0
121,Audenarde,Oudenaarde,50.8691117,3.6189836,20363664,9700,House,HOUSE,189000,3,101,100,,Good,0,0,0,,0,,0,0
122,Soignies,Houdeg-Goegnies,50.4827281,4.1528463,20342589,7110,House,HOUSE,159000,2,130,456,2,To be done up,0,0,1,350,1,17,0,0
123,Ostende,Lombardsijde,51.1454331,2.7614978,20355378,8434,House,HOUSE,185000,2,53,190,,To be done up,0,1,0,,0,,0,0
124,Alost,Lede,50.96925359999999,3.9788231,20344834,9340,House,HOUSE,139000,2,122,175,3,To renovate,0,1,0,,1,45,0,0
125,Alost,GERAARDSBERGEN,50.7739483,3.8866239,20347964,9500,Mixed_Use_Building,HOUSE,159000,3,170,90,,Good,0,1,0,,0,,0,0
126,Alost,GERAARDSBERGEN,50.7739483,3.8866239,20347971,9500,House,HOUSE,159000,3,170,90,,Good,0,1,0,,0,,0,0
127,Liège,SAINT-NICOLAS,50.6338811,5.519054,20342376,4420,House,HOUSE,199000,2,106,120,2,Just renovated,0,1,1,40,1,15,0,0
128,Alost,HELDERGEM,50.8739034,3.9598788,20354757,9450,House,HOUSE,125000,3,138,231,2,To renovate,0,0,0,,0,,0,0
129,Audenarde,RONSE,50.7502207,3.5949745,20355532,9600,House,HOUSE,185000,4,300,130,3,Just renovated,0,0,0,,1,20,0,0
130,Audenarde,Ronse,50.7517623,3.5938907,20364419,9600,House,HOUSE,149000,3,171,173,,,0,0,0,,0,,0,0
131,Liège,Seraing (Seraing),50.5903062,5.5019392,20366506,4100,House,HOUSE,168000,2,78,121,2,,0,0,0,,0,,0,0
132,Charleroi,Jumet,50.4446547,4.4247078,20348456,6040,House,HOUSE,120000,2,105,105,2,To be done up,0,0,1,20,1,20,0,0
133,Liège,Grâce-Hollogne,50.6477769,5.4973923,20362894,4460,House,HOUSE,119000,2,76,235,2,,0,0,0,,0,,0,0
134,Huy,Ben-Ahin,50.5183103,5.2227994,20362240,4500,House,HOUSE,149000,2,107,230,2,,0,0,0,,0,,0,0
135,Huy,Engis,50.5823551,5.4032988,20334846,4480,House,HOUSE,130000,4,161,158,2,To renovate,0,0,1,32,1,19,0,0
136,Liège,Liège,50.6368769,5.5876822,20344025,4020,House,HOUSE,149000,2,80,72,2,Good,0,0,0,,1,15,1,0
137,Audenarde,KLUISBERGEN,50.7896981,3.5071727,20348861,9690,House,HOUSE,195000,2,128,220,4,Good,0,0,1,92,1,25,0,0
138,Hal-Vilvorde,GALMAARDEN,50.7467006,4.0100671,20347970,1570,Mixed_Use_Building,HOUSE,200000,4,179,1000,3,To renovate,0,0,0,,0,,0,0
139,Hal-Vilvorde,GALMAARDEN,50.7467006,4.0100671,20347921,1570,House,HOUSE,200000,4,179,1000,3,To renovate,0,0,0,,0,,0,0
140,Courtrai,Kortrijk,50.837478,3.263998,20341328,8500,House,HOUSE,200000,3,170,77,,Good,0,0,0,,1,15,0,0
141,Turnhout,TURNHOUT,51.3261451,4.9479435,20354989,2300,House,HOUSE,179000,1,132,73,2,Good,0,0,0,,0,,0,0
142,Charleroi,Jumet,50.4385953,4.4138388,20353245,6040,House,HOUSE,199000,3,127,140,2,Good,0,1,0,,1,45,0,0
143,Saint-Nicolas,SINT-GILLIS-WAAS,51.21929420000001,4.1217401,20356745,9170,House,HOUSE,179000,2,103,100,2,,0,1,1,30,0,,0,0
144,Tielt,Tielt,50.9983089,3.3349973,20358430,8700,House,HOUSE,159000,3,130,168,2,To renovate,0,0,1,33,0,,0,0
145,Dixmude,Diksmuide,51.0021482,2.8707428,20356889,8600,House,HOUSE,165000,3,154,264,,To renovate,0,0,0,,0,,0,0
146,Audenarde,Ronse,50.755277,3.595552199999999,20334818,9600,House,HOUSE,139000,2,130,240,2,To renovate,0,0,1,40,0,,0,0
147,Liège,Grivegnée,50.6244501,5.600007799999999,20350535,4030,House,HOUSE,199000,2,104,118,2,Good,0,0,1,26,0,,0,0
148,Courtrai,Lauwe,50.7961231,3.1808155,20366311,8930,House,HOUSE,140000,3,112,229,2,,0,0,0,,0,,0,0
149,Soignies,LESSEN,50.7087687,3.840092799999999,20365694,7860,House,HOUSE,165000,3,150,400,2,To renovate,0,0,0,,0,,0,0
150,Huy,AMAY,50.5499795,5.317129200000001,20346684,4540,House,HOUSE,139000,4,159,90,2,Just renovated,0,1,0,,0,,0,0
151,Philippeville,Viroinval Le Mesnil,50.0310002,4.672906,20337925,5670,House,HOUSE,150000,2,145,295,3,Good,0,1,1,200,0,,0,0
152,Anvers,BORGERHOUT,51.2137201,4.4531543,20335157,2140,Mixed_Use_Building,HOUSE,189000,2,91,427,2,Good,0,1,0,,0,,0,0
153,Philippeville,Villers-en-Fagne,50.155008,4.5908542,20362432,5600,House,HOUSE,135000,1,66,1044,4,,0,0,0,,0,,0,0
154,Liège,Soumagne (Soumagne),50.622358,5.7389122,20358398,4630,House,HOUSE,189000,3,130,115,2,,0,0,1,87,0,,0,0
155,Turnhout,Herentals,51.1879992,4.8388025,20359137,2200,House,HOUSE,199000,4,168,,2,To renovate,0,0,0,,0,,0,0
156,Huy,Villers-Le-Bouillet,50.5622676,5.2838682,20358762,4530,House,HOUSE,199000,4,122,146,3,,0,0,0,,1,55,0,0
157,Roulers,Ledegem,50.8589593,3.1240843,20358757,8880,House,HOUSE,199000,4,250,350,,Good,0,0,0,,0,,0,0
158,Liège,Liège,50.621174,5.6005524,20333899,4030,Apartment_Block,HOUSE,180000,3,160,250,2,To be done up,0,1,1,66,0,,0,0
159,Turnhout,GEEL,51.1643891,4.9801539,20349775,2440,House,HOUSE,135000,3,84,75,2,To renovate,0,0,0,,0,,0,0
160,Turnhout,GEEL,51.1643958,4.9801119,20349776,2440,House,HOUSE,145000,3,116,83,2,To renovate,0,0,0,,0,,0,0
161,Marche-En-Famenne,Manhay,50.2348684,5.6203479,20354968,6960,House,HOUSE,190000,4,312,3488,4,,0,0,0,,0,,0,0
162,Eeklo,Eeklo,51.1827068,3.5641353,20362784,9900,House,HOUSE,160000,,151,537,,To renovate,0,0,0,,0,,0,0
163,Liège,Jemeppe-sur-Meuse,50.61738,5.5074789,20343752,4101,House,HOUSE,138500,2,128,100,2,To be done up,0,0,1,18,1,41,0,0
164,Huy,Burdinne,50.5835535,5.0735739,20344081,4210,House,HOUSE,150000,2,100,151,2,To be done up,0,0,1,50,0,,0,0
165,Liège,Seraing,50.6178679,5.5016528,20339864,4101,House,HOUSE,120000,3,70,35,2,Good,0,0,0,,0,,0,0
166,Liège,Seraing,50.6011989,5.506246099999999,20337478,4100,House,HOUSE,129000,2,138,117,2,To be done up,0,1,1,25,0,,0,0
167,Soignies,La Louvière Strépy-Bracquegnies,50.4755105,4.1275192,20348966,7110,House,HOUSE,89000,3,161,490,2,To be done up,0,0,0,,0,,0,0
168,Liège,Aywaille,50.4673812,5.6788813,20326825,4920,Mixed_Use_Building,HOUSE,195000,2,153,430,4,To renovate,0,0,1,238,0,,0,0
169,Audenarde,RONSE,50.7525173,3.5926185,20364735,9600,House,HOUSE,175000,1,160,62,2,Good,0,0,0,,0,,0,0
170,Dinant,Beauraing,50.1144331,4.955493,20357676,5570,House,HOUSE,180000,3,183,179,3,To renovate,0,0,0,,0,,0,0
171,Soignies,Enghien,50.6957306,4.0350544,20358024,7850,House,HOUSE,185000,2,80,250,3,,0,0,0,,0,,0,0
172,Roulers,Ingelmunster,50.9144715,3.2559496,20341289,8770,House,HOUSE,170000,3,147,123,,To renovate,0,1,0,,0,,0,0
173,Liège,Liège,50.6114224,5.5543843,20339026,4000,House,HOUSE,189000,4,145,909,2,Good,0,0,0,,1,42,0,0
174,Courtrai,Bissegem,50.8262004,3.2330309,20354842,8501,House,HOUSE,169000,3,102,250,2,,0,1,1,157,1,32,0,0
175,Alost,GERAARDSBERGEN,50.7425213,3.9294468,20355249,9500,House,HOUSE,175000,4,179,650,,To be done up,0,0,0,,0,,0,0
176,Liège,Seraing,50.60214089999999,5.5192558,20335962,4100,House,HOUSE,195000,4,200,520,2,Just renovated,0,0,1,420,1,30,0,0
177,Soignies,La Louvière Strépy-Bracquegnies,50.4605943,4.1102595,20364151,7110,House,HOUSE,179000,3,178,310,2,,0,0,0,,0,,0,0
178,Courtrai,Wevelgem,50.81061800000001,3.178762,20343104,8560,House,HOUSE,137000,3,130,380,2,To renovate,0,1,1,235,0,,0,0
179,Anvers,ANTWERPEN,51.22290959999999,4.3859154,20336989,2050,Mixed_Use_Building,HOUSE,149000,1,47,2198,4,Good,0,1,0,,0,,0,0
180,Mons,Mons Cuesmes,50.4391285,3.9351477,20353278,7033,House,HOUSE,165000,2,105,188,2,Good,0,1,1,70,1,53,0,0
181,Ath,VAUDIGNIES,50.55305500000001,3.8047836,20354644,7950,House,HOUSE,165000,3,108,165,2,Good,0,0,0,,0,,0,0
182,Huy,Modave,50.4452661,5.2959903,20350266,4577,House,HOUSE,198500,3,120,104,4,To be done up,0,0,0,,0,,0,0
183,Liège,Esneux,50.5458625,5.5840967,20350259,4130,Chalet,HOUSE,200000,2,100,1526,4,To renovate,0,0,0,,1,65,0,0
184,Liège,Saint-nicolas,,,20362567,4420,House,HOUSE,109000,1,64,55,3,Good,0,1,1,19,0,,0,0
185,Philippeville,Sautour,50.1653805,4.558267499999999,20362256,5600,House,HOUSE,190000,4,133,930,3,,0,0,0,,0,,0,0
186,Anvers,ANTWERPEN,51.2361744,4.412956299999999,20358579,2000,House,HOUSE,149000,2,86,,4,Good,0,0,0,,1,4,0,0
187,Audenarde,RONSE,50.7558892,3.6189781,20337618,9600,House,HOUSE,159000,4,244,218,2,To renovate,0,0,0,,0,,0,0
188,Tournai,ANSEROEUL,50.7299308,3.5131043,20338318,7750,House,HOUSE,195000,1,158,608,3,To be done up,1,0,1,450,1,14,0,0
189,Liège,Liège,50.6651726,5.5938108,20344698,4000,House,HOUSE,159000,2,124,154,2,To renovate,0,1,1,70,1,17,0,0
190,Thuin,Anderlues,50.4024878,4.2775343,20344532,6150,House,HOUSE,199000,2,118,370,3,To be done up,0,1,1,284,1,50,0,0
191,Liège,Liège,50.6502231,5.555633299999999,20327720,4000,House,HOUSE,99000,4,121,120,2,To be done up,0,0,1,60,0,,0,0
192,Neufchâteau,Libramont-Chevigny Freux,49.9699861,5.4504457,20321878,6800,House,HOUSE,145000,2,100,308,3,To renovate,0,0,1,100,1,15,0,0
193,Gand,Beervelde,51.0781863,3.8730051,20341269,9080,House,HOUSE,179000,1,91,220,,To renovate,0,0,0,,0,,0,0
194,Marche-En-Famenne,La Roche-en-Ardenne,50.1782619,5.5764472,20350045,6980,House,HOUSE,150000,5,220,169,2,To restore,0,0,0,,1,20,0,0
195,Ostende,Wenduine,51.294854,3.0846444,20365188,8420,House,HOUSE,179000,2,114,,2,To restore,0,0,0,,0,,0,0
196,Liège,IVOZ-RAMET,50.5811897,5.423197,20319127,4400,House,HOUSE,190000,2,115,2313,3,Good,1,1,1,2000,1,25,0,0
197,Ypres,Geluwe,50.8081417,3.077317,20337923,8940,House,HOUSE,159000,3,165,250,,To renovate,0,1,0,,0,,0,0
198,Tournai,Tournai,50.5994786,3.3802929,20339710,7500,House,HOUSE,170000,3,175,230,2,To renovate,0,0,0,,0,,0,0
199,Charleroi,Pont-à-Celles,50.5075055,4.371455,20327165,6230,House,HOUSE,179900,2,147,386,2,Good,0,1,1,286,1,60,0,0
200,Liège,Saint-Nicolas,50.6372443,5.532725999999999,20328912,4420,House,HOUSE,180000,3,105,230,3,Good,0,1,1,120,1,2,0,0
201,Soignies,Naast,50.5534977,4.0997444,20364266,7062,House,HOUSE,180000,3,170,529,3,,0,0,1,400,1,100,0,0
202,Liège,Flémalle,50.6020474,5.4717369,20364084,4400,House,HOUSE,189000,3,119,331,3,,0,0,0,,1,60,0,0
203,Anvers,REET,51.11547030000001,4.4045334,20363002,2840,House,HOUSE,198000,2,114,,3,To renovate,0,0,0,,0,,0,0
204,Audenarde,RONSE,50.753601,3.5921043,20315423,9600,House,HOUSE,199000,3,118,100,2,Good,0,1,1,40,1,8,0,0
205,Liège,Montegnée,50.6391207,5.522294,20358525,4420,Mixed_Use_Building,HOUSE,129000,2,103,75,3,,0,0,0,,0,,0,0
206,Liège,MONTEGNEE,50.64077,5.5294532,20358524,4420,House,HOUSE,129000,2,120,215,3,,0,0,0,,0,,0,0
207,Huy,Tihange,50.5303777,5.2653776,20348815,4500,House,HOUSE,99000,1,70,78,2,,0,0,0,,1,20,0,0
208,Turnhout,GEEL,51.1648198,5.0037664,20349770,2440,House,HOUSE,115000,2,158,117,3,To renovate,0,0,0,,0,,0,0
209,Verviers,Verviers,50.5985739,5.875784700000001,20343243,4800,House,HOUSE,169000,6,251,99,2,Good,0,1,0,,1,31,0,0
210,Eeklo,Boekhoute,51.26060570000001,3.7199154,20345877,9961,House,HOUSE,175000,2,107,239,3,To restore,0,0,0,,0,,0,0
211,Dinant,Hastière,50.2135367,4.7722875,20317833,5540,Country_Cottage,HOUSE,85000,2,55,500,,Good,0,0,1,500,1,16,1,0
212,Dinant,Hastière,50.2128161,4.8324752,20297774,5541,House,HOUSE,124000,2,55,56,2,Good,1,0,0,,1,35,1,0
213,Termonde,WETTEREN,51.0055798,3.8817856,20317251,9230,House,HOUSE,199500,2,150,140,3,Good,0,0,1,45,1,45,0,0
214,Liège,Flémalle,50.614463,5.4719181,20356743,4400,House,HOUSE,155000,2,90,40,2,Just renovated,0,0,0,,0,,0,0
215,Dinant,Dinant,50.260369,4.9112769,20350620,5500,Mixed_Use_Building,HOUSE,175000,2,127,,2,Good,0,0,0,,0,,0,0
216,Mons,MONS,50.46918549999999,3.9565821,20355649,7000,Town_House,HOUSE,180000,2,98,430,2,,0,0,0,,0,,0,0
217,Alost,GERAARDSBERGEN,50.7726712,3.882106499999999,20318217,9500,House,HOUSE,145000,2,85,52,2,Good,0,1,0,,1,6,0,0
218,Courtrai,Deerlijk,50.8351727,3.3507181,20343116,8540,House,HOUSE,145000,2,141,118,,To renovate,0,0,0,,0,,0,0
219,Mons,Baisieux,50.3918754,3.6983728,20344759,7380,House,HOUSE,165000,2,147,750,2,Good,0,0,1,85,0,,0,0
220,Liège,Seraing,50.6010929,5.5120246,20320758,4100,House,HOUSE,129000,2,91,82,2,Good,0,0,1,40,1,10,0,0
221,Neufchâteau,Bouillon Corbion,49.7945146,5.007637600000001,20305728,6838,House,HOUSE,149500,5,156,562,2,To renovate,0,0,1,400,1,15,0,0
222,Courtrai,Waregem,50.888158,3.423837,20341213,8790,House,HOUSE,139000,2,115,182,2,To renovate,0,0,1,64,0,,0,0
223,Waremme,Remicourt,50.6801441,5.3199274,20337672,4350,House,HOUSE,175000,3,131,348,2,To renovate,0,0,1,269,0,,0,0
224,Alost,GERAARDSBERGEN,50.7703095,3.8826631,20318251,9500,House,HOUSE,125000,3,184,152,,To renovate,0,0,0,,0,,0,0
225,Alost,GERAARDSBERGEN,50.7703095,3.8826631,20318271,9500,Mixed_Use_Building,HOUSE,125000,3,184,152,,To renovate,0,0,0,,0,,0,0
226,Nivelles,Wavre,50.71257809999999,4.6124076,20347201,1300,House,HOUSE,110000,2,43,26,2,To renovate,0,0,0,,0,,0,0
227,Charleroi,LODELINSART,50.4293273,4.4224499,20350170,6042,House,HOUSE,185000,2,105,384,2,Just renovated,0,1,0,,0,,0,0
228,Alost,HOFSTADE,50.9560398,4.0352802,20333010,9308,House,HOUSE,169500,3,127,109,,To renovate,0,0,1,37,0,,0,0
229,Marche-En-Famenne,Durbuy,50.364076,5.4766584,20362241,6940,Chalet,HOUSE,32000,1,28,350,4,,0,0,0,,1,15,1,0
230,Liège,Liège,50.6054785,5.622385899999999,20319848,4032,House,HOUSE,199000,3,100,205,2,Good,0,1,1,40,1,50,0,0
231,Eeklo,EEKLO,51.184145,3.5623102,20348300,9900,House,HOUSE,185000,2,87,55,2,To be done up,0,0,0,,0,,0,0
232,Liège,Liège,50.6369607,5.587809099999999,20319916,4020,House,HOUSE,115000,2,77,55,2,Good,0,0,0,,1,30,0,0
233,Dinant,Yvoir,50.33392,4.90372,20297722,5530,Country_Cottage,HOUSE,120000,1,55,200,,Just renovated,0,0,1,200,1,20,1,0
234,Verviers,Herve,50.6413104,5.7920511,20321843,4650,Apartment_Block,HOUSE,149000,3,248,101,2,To renovate,0,0,0,,0,,0,0
235,Charleroi,Courcelles,50.4665775,4.387218400000001,20322868,6180,House,HOUSE,159000,3,162,570,3,To be done up,0,0,1,483,0,,0,0
236,Liège,Seraing Jemeppesur-Meuse,50.6166398,5.5010433,20327113,4101,House,HOUSE,180000,6,230,400,2,To be done up,0,0,1,300,1,15,1,0
237,Liège,Grâce-Hollogne,50.6263122,5.502080599999999,20305941,4460,House,HOUSE,179000,2,151,476,2,To renovate,0,0,1,275,0,,0,0
238,Gand,Oosterzele,50.9353803,3.769119,20316952,9860,House,HOUSE,199000,3,204,553,3,To be done up,0,0,0,,0,,0,0
239,Alost,Meldert,50.9206967,4.1370853,20340713,9310,House,HOUSE,169000,2,135,1269,2,To renovate,0,0,1,1230,0,,0,0
240,Nivelles,Genappe,50.6273583,4.4592943,20080346,1470,House,HOUSE,185000,2,142,282,3,To renovate,0,0,1,140,0,,0,0
241,Namur,HAM-SUR-SAMBRE,50.448411,4.672876700000001,20344445,5190,House,HOUSE,169000,2,115,583,3,Good,0,0,0,,0,,0,0
242,Alost,GERAARDSBERGEN,50.7725926,3.8737336,20318280,9500,Mixed_Use_Building,HOUSE,160000,4,147,140,2,To be done up,0,1,0,,1,22,0,0
243,Alost,GERAARDSBERGEN,50.7725926,3.8737336,20318211,9500,House,HOUSE,160000,4,147,140,2,To be done up,0,1,0,,1,22,0,0
244,Liège,Liège,50.6663984,5.6553552,20315534,4020,House,HOUSE,199000,3,102,66,2,As new,0,1,1,65,1,19,0,0
245,Huy,HUY,50.52305279999999,5.2474357,20340395,4500,House,HOUSE,139000,2,86,55,2,Good,0,0,0,,1,6,0,0
246,Termonde,Zele,51.0646698,4.0693388,20339604,9240,House,HOUSE,160000,4,156,175,3,To renovate,0,1,0,,0,,0,0
247,Liège,Sprimont,50.51287019999999,5.6298254,20338261,4140,House,HOUSE,199000,3,202,210,2,To renovate,0,0,0,,1,34,0,0
248,Liège,Beyne-heusay,50.62423700000001,5.6488853,20348000,4610,House,HOUSE,199000,3,,287,3,To be done up,0,1,1,171,1,16,0,0
249,Dinant,Ciney,50.2965034,5.1050064,20295495,5590,House,HOUSE,190000,3,100,781,3,Good,0,0,1,781,1,11,0,0
250,Dinant,Somme-Leuze,50.298628,5.3579832,20363478,5377,House,HOUSE,45000,2,46,372,,Good,0,0,0,,0,,1,0
251,Alost,GERAARDSBERGEN,50.7725192,3.8693697,20364561,9500,House,HOUSE,99000,2,96,77,3,Good,0,0,0,,0,,0,0
252,Verviers,Verviers,50.5950541,5.8666576,20363698,4800,Apartment_Block,HOUSE,189000,5,,280,2,To renovate,0,0,0,,0,,0,0
253,Louvain,Oorbeek,50.7981809,4.8918196,20362857,3300,House,HOUSE,200000,3,200,480,4,To renovate,0,0,1,250,0,,0,0
254,Marche-En-Famenne,Durbuy,50.3792019,5.4055941,20357282,6941,House,HOUSE,135000,2,73,,3,Good,0,1,0,,1,15,0,0
255,Dixmude,Vladslo,51.0664312,2.9359549,20354867,8600,House,HOUSE,185000,2,111,735,,To restore,0,0,0,,0,,0,0
256,Courtrai,Kortrijk,50.8244328,3.2750607,20337599,8500,House,HOUSE,189000,4,68,37,2,Good,0,1,0,,1,1,0,0
257,Marche-En-Famenne,Durbuy,50.381802,5.585674699999999,20334205,6941,House,HOUSE,199000,3,100,336,4,To renovate,0,0,1,220,0,,0,0
258,Huy,SENY,50.4590446,5.4090833,20328440,4557,House,HOUSE,169000,2,82,1975,4,Good,0,1,1,1500,1,15,0,0
259,Virton,Tintigny,49.7193967,5.4861303,20315053,6730,Country_Cottage,HOUSE,189000,3,156,440,3,Good,0,0,0,,0,,0,0
260,Virton,Saint-Léger Meixle-Tige,49.6155358,5.718308899999999,20283710,6747,House,HOUSE,180000,4,140,550,2,To renovate,0,0,1,450,1,20,0,0
261,Dinant,Hastière,50.2141598,4.8143815,20356471,5540,Chalet,HOUSE,75000,1,56,756,4,Just renovated,0,0,0,,0,,0,0
262,Liège,Seraing,50.6185116,5.504940599999999,20310678,4101,House,HOUSE,139000,3,84,60,3,Good,0,1,0,,0,,0,0
263,Namur,Auvelais,50.4469912,4.6498701,20310199,5060,House,HOUSE,194000,3,161,400,3,To be done up,0,1,1,264,1,56,0,0
264,Mons,Honnelles Autreppe,50.3459867,3.7271118,20335101,7387,House,HOUSE,160000,2,105,384,3,Good,0,1,1,100,1,21,0,0
265,Courtrai,Kortrijk,50.8208394,3.2914489,20331737,8500,House,HOUSE,165000,4,135,890,2,To renovate,0,0,0,,0,,0,0
266,Liège,Oupeye Houtain-Saint-Siméon,50.7382521,5.610282499999999,20334443,4682,House,HOUSE,185000,2,89,249,2,Good,0,0,1,175,0,,0,0
267,Charleroi,Charleroi,50.3992423,4.454168,20366987,6001,House,HOUSE,179000,3,,190,3,Good,0,1,1,50,0,,0,0
268,Ypres,Nieuwkerke,50.7474543,2.8210333,20344476,8950,House,HOUSE,179000,2,85,392,2,Good,0,0,1,254,1,25,0,0
269,Neufchâteau,Hatrival (Saint-Hubert),50.0052485,5.342759699999999,20344131,6870,Chalet,HOUSE,185000,2,66,1050,4,,0,0,0,,0,,0,0
270,Alost,Lede,50.9624355,3.9793166,20338954,9340,House,HOUSE,168000,2,153,193,2,To renovate,0,1,1,47,1,37,0,0
271,Charleroi,Manage La Hestre,50.4767409,4.2303859,20326920,7170,House,HOUSE,185000,3,153,160,2,Good,0,0,1,70,1,15,0,0
272,Nivelles,WAVRE,50.7169781,4.6114314,20313601,1300,Apartment_Block,HOUSE,180000,,78,100,2,Just renovated,1,0,1,6,1,6,1,0
273,Philippeville,Daussois,50.2172126,4.457122000000001,20362887,5630,House,HOUSE,149000,3,135,,4,,0,0,1,50,0,,0,0
274,Termonde,Dendermonde (Sint Gillis),51.0167599,4.0954641,20364007,9280,House,HOUSE,160000,1,190,225,3,,0,0,0,,1,100,0,0
275,Courtrai,Kortrijk,50.8322319,3.2525528,20362334,8500,House,HOUSE,165000,4,158,105,2,Good,0,0,0,,0,,0,0
276,Mons,AUDREGNIES,,,20364865,7382,House,HOUSE,185000,3,160,931,4,To renovate,0,0,0,,0,,0,0
277,Arlon,Aubange (Athus),49.5640739,5.839239699999999,20304262,6791,House,HOUSE,180000,2,86,110,2,Good,0,1,0,,0,,0,0
278,Charleroi,WANFERCEE-BAULET,50.4710788,4.5869464,20337331,6224,House,HOUSE,180000,3,170,243,2,Good,0,0,0,,0,,0,0
279,Huy,Engis,50.58071690000001,5.4007869,20337621,4480,House,HOUSE,199000,2,111,140,2,Good,0,1,1,80,1,12,0,0
280,Liège,Seraing,50.5928878,5.4910842,20297926,4100,House,HOUSE,79000,1,70,181,2,Good,0,0,1,55,0,,0,0
281,Huy,Engis,50.572285,5.3975557,20347117,4480,House,HOUSE,199500,2,120,420,4,To be done up,0,0,0,,0,,0,0
282,Dinant,Hastière,50.2068102,4.8441945,20297803,5542,Country_Cottage,HOUSE,60000,2,58,211,,Good,1,0,1,211,1,12,0,0
283,Dinant,Dinant,50.2577178,4.9080635,20297659,5500,House,HOUSE,159000,4,220,183,2,Good,0,0,1,183,1,16,0,0
284,Marche-En-Famenne,Hotton,50.2689044,5.446271599999999,20341093,6990,House,HOUSE,169000,3,164,184,3,To be done up,0,0,0,,0,,0,0
285,Virton,Saint-Léger,49.6115521,5.6541312,20283726,6747,House,HOUSE,180000,4,190,370,2,To renovate,0,0,1,150,0,,0,0
286,Gand,Gent,51.0401616,3.7261232,20332441,9000,House,HOUSE,199000,1,48,16,,Good,0,0,1,169,0,,0,0
287,Philippeville,YVES-GOMEZÉE,50.2386785,4.4963654,20366961,5650,House,HOUSE,150000,2,134,,,Good,0,0,0,,0,,0,0
288,Mons,ELOUGES,50.3968034,3.7524081,20325792,7370,House,HOUSE,75000,2,96,50,,Good,0,0,0,,0,,0,0
289,Nivelles,WAVRE,50.7176301,4.603354299999999,20295477,1300,House,HOUSE,200000,2,110,82,3,To renovate,0,0,0,,1,8,0,0
290,Liège,Seraing,50.62349529999999,5.4824228,20314548,4101,House,HOUSE,199000,3,100,100,2,Good,0,1,0,,1,30,0,0
291,Ostende,Westende,51.1538623,2.7649182,20348687,8434,Bungalow,HOUSE,199000,,103,254,,To be done up,0,0,0,,0,,0,0
292,Dinant,Hastière,50.2196959,4.8293329,20328976,5540,Country_Cottage,HOUSE,64000,2,32,543,,Good,0,0,1,543,1,26,1,0
293,Virton,HOUDRIGNY,49.5786761,5.494855900000001,20331057,6769,House,HOUSE,110000,4,136,559,3,To renovate,0,0,1,475,0,,0,0
294,Anvers,HEMIKSEM,51.1431858,4.3383442,20358165,2620,House,HOUSE,179000,2,89,,2,To renovate,0,0,0,,0,,0,0
295,Virton,HABAY-LA-NEUVE,49.7002772,5.6814336,20337425,6720,House,HOUSE,185000,3,153,550,3,To renovate,0,0,1,240,0,,0,0
296,Huy,Marchin,50.496179,5.235611,20336824,4570,House,HOUSE,189500,3,240,650,4,To be done up,0,0,1,500,0,,0,0
297,Huy,Huy,50.5185251,5.244694099999999,20337913,4500,House,HOUSE,195000,3,270,243,2,To renovate,0,0,1,70,0,,0,0
298,Roulers,Roeselare,50.9468496,3.1135267,20345443,8800,House,HOUSE,149000,2,125,114,,To renovate,0,0,0,,0,,0,0
299,Liège,Comblainau-Pont,50.48133869999999,5.620985999999999,20344679,4170,House,HOUSE,185000,2,112,500,4,To renovate,0,0,0,,0,,0,0
300,Liège,Liège Jupillesur-Meuse,50.6419737,5.6390546,20344506,4020,House,HOUSE,189000,2,70,185,3,Good,0,1,0,,1,25,0,0
301,Liège,Saint-Nicolas,50.637215,5.514155199999999,20344693,4420,House,HOUSE,199000,3,90,,2,Good,0,1,1,50,1,20,0,0
302,Ath,Basècles,50.522013,3.6543277,20304431,7971,House,HOUSE,110000,2,152,1000,3,To renovate,0,0,0,,0,,0,0
303,Charleroi,JUMET,50.4368081,4.4207006,20328914,6040,House,HOUSE,130000,2,115,74,3,Good,0,0,0,,1,10,0,0
304,Charleroi,Courcelles Trazegnies,50.4624365,4.330979,20280038,6183,House,HOUSE,185000,2,148,140,3,Good,0,0,0,,1,35,0,0
305,Huy,HUY,50.5305883,5.236866,20330432,4500,House,HOUSE,199000,3,109,570,3,Just renovated,0,1,1,50,1,8,0,0
306,Liège,Herstal,50.67086949999999,5.6114779,20303254,4040,House,HOUSE,149000,3,88,607,2,Good,0,1,0,,1,19,0,0
307,Virton,Saint-Léger,49.6124012,5.6534363,20283697,6747,House,HOUSE,99000,3,150,208,3,To renovate,0,0,1,90,0,,0,0
308,Virton,Virton,49.5694994,5.533473799999999,20283700,6760,House,HOUSE,135000,3,120,480,2,To renovate,0,0,0,,1,10,0,0
309,Virton,MUSSY-LA-VILLE,49.5707104,5.6593153,20333553,6750,House,HOUSE,119000,5,150,571,2,To renovate,0,0,0,,0,,0,0
310,Charleroi,CHAPELLE-LEZ-HERLAIMONT,50.4704814,4.2865951,20333754,7160,House,HOUSE,150000,4,185,365,3,To be done up,0,1,0,,0,,0,0
311,Dinant,BEAURAING,50.09847610000001,4.8979094,20310706,5570,House,HOUSE,120000,3,155,987,2,To renovate,0,0,0,,1,40,0,0
312,Liège,Liège,50.65182189999999,5.5891991,20365697,4000,House,HOUSE,149000,3,160,140,2,,0,0,0,,0,,0,0
313,Liège,Sprimont,50.5175518,5.7349507,20344891,4141,Chalet,HOUSE,84000,2,38,194,4,Good,0,1,0,,0,,0,0
314,Nivelles,Tubize,,,20361121,1480,House,HOUSE,195000,2,132,283,2,To be done up,0,0,1,170,1,15,0,0
315,Tielt,Tielt,51.0018109,3.3308656,20337607,8700,House,HOUSE,149000,3,157,110,,To restore,0,0,0,,0,,0,0
316,Liège,LIÈGE,50.6356625,5.5504133,20341464,4000,House,HOUSE,159000,4,192,120,2,To renovate,0,0,0,,0,,0,0
317,Bruges,Blankenberge,51.3095489,3.1214165,20341394,8370,House,HOUSE,179000,3,145,95,2,Good,0,0,0,,0,,0,0
318,Charleroi,Pont-à-Celles,50.52820879999999,4.3565231,20193901,6230,House,HOUSE,160000,2,100,292,3,Good,0,1,1,220,1,20,0,0
319,Liège,Seraing,50.61632849999999,5.5059014,20311767,4101,Mixed_Use_Building,HOUSE,169900,2,77,179,2,As new,0,1,0,,1,20,0,0
320,Dinant,Dion,50.1279276,4.8823456,20329284,5570,Country_Cottage,HOUSE,195000,2,60,1420,,Good,0,0,1,1200,1,20,0,0
321,Arlon,Arlon,49.6851074,5.815954,20362544,6700,House,HOUSE,165000,2,100,51,2,,0,0,0,,0,,0,0
322,Thuin,Froidchapelle,50.1740792,4.324186,20323599,6440,Chalet,HOUSE,95000,2,82,408,4,Good,0,0,0,,1,22,0,0
323,Charleroi,Charleroi,50.4262758,4.4763423,20343845,6060,House,HOUSE,155000,3,166,330,2,To renovate,0,1,1,100,1,20,0,0
324,Alost,Erpe-Mere,50.9199148,3.9677899,20336341,9420,House,HOUSE,140000,2,152,140,2,To restore,0,0,0,,0,,0,0
325,Liège,FLÉMALLE,50.6019434,5.471068,20337309,4400,House,HOUSE,165000,2,100,,2,To renovate,0,0,1,220,1,15,0,0
326,Tournai,Tournai,50.6140576,3.4064548,20349559,7500,House,HOUSE,155000,4,250,258,3,To renovate,0,0,0,,0,,0,0
327,Tournai,Tournai,50.6140576,3.4064548,20349558,7500,Mixed_Use_Building,HOUSE,155000,4,250,258,3,To renovate,0,0,0,,0,,0,0
328,Liège,Liège Grivegnée,50.6227424,5.602587,20345635,4030,House,HOUSE,165000,3,102,,2,To renovate,0,0,1,130,1,5,0,0
329,Dinant,Hastière,50.2048666,4.8451977,20297706,5542,Country_Cottage,HOUSE,65000,2,45,295,,Good,0,0,1,295,1,20,1,0
330,Dinant,Yvoir,50.33392,4.90372,20297677,5530,Country_Cottage,HOUSE,115000,2,45,200,,Good,0,0,1,200,1,23,1,0
331,Alost,Aalst,50.93698699999999,4.0209182,20320725,9300,Mixed_Use_Building,HOUSE,169000,2,72,90,2,Good,0,1,0,,1,18,0,0
332,Mons,Hornu,50.4365228,3.8336306,20316069,7301,House,HOUSE,180000,3,138,110,2,As new,0,1,1,1,1,1,0,0
333,Liège,SERAING,50.5886546,5.512898499999999,20279513,4100,House,HOUSE,155000,3,120,168,2,Good,0,1,1,80,1,14,0,0
334,Virton,Saint-Léger,49.61002209999999,5.6593797,20283753,6747,House,HOUSE,155000,3,120,160,3,To renovate,0,0,1,100,0,,0,0
335,Virton,Virton Bleid,49.563667,5.591672,20283745,6760,House,HOUSE,155000,2,110,983,3,To renovate,0,0,1,900,0,,0,0
336,Anvers,BERCHEM,51.2035515,4.4424107,20189295,2600,Mixed_Use_Building,HOUSE,175000,2,90,4497,2,To be done up,0,0,0,,1,12,0,0
337,Liège,GRÂCE-HOLLOGNE,50.6287202,5.4148042,20356332,4460,House,HOUSE,75000,2,147,400,3,,0,0,0,,0,,0,0
338,Philippeville,Florennes Morville,50.2108847,4.7449762,20330497,5620,Chalet,HOUSE,169000,2,70,1548,4,Just renovated,0,0,0,,0,,0,0
339,Mons,DOUR,,,20366529,7370,House,HOUSE,75000,2,114,195,3,To renovate,0,0,0,,0,,0,0
340,Liège,Seraing,50.5885675,5.5135203,20292095,4100,House,HOUSE,120000,2,57,260,3,Just renovated,0,0,1,110,1,7,0,0
341,Mons,PATURAGES,,,20366247,7340,House,HOUSE,135000,3,155,300,2,To be done up,0,0,0,,0,,0,0
342,Mons,PATURAGES,,,20366175,7340,House,HOUSE,135000,3,155,300,2,To be done up,0,0,0,,0,,0,0
343,Bastogne,Vielsalm,50.2877355,5.915734,20365926,6690,House,HOUSE,195000,5,207,117,2,,0,1,0,,0,,0,0
344,Turnhout,HERSELT,51.0407821,4.900648200000001,20320433,2230,Bungalow,HOUSE,195000,2,125,1782,4,Good,0,0,0,,0,,0,0
345,Mons,Colfontaine,50.41005999999999,3.8606919,20138423,7340,House,HOUSE,78000,2,65,170,2,To be done up,0,0,1,110,0,,0,0
346,Soignies,La Louvière Houdeng-Aimeries,50.4852388,4.148502,20338514,7110,House,HOUSE,115000,2,95,100,2,Good,0,0,0,,0,,0,0
347,Alost,Aalst (9300),50.93252409999999,4.042642799999999,20347667,9300,House,HOUSE,150000,2,86,54,,,0,1,0,,0,,0,0
348,Alost,Aalst (9300),50.9323257,4.0432318,20347715,9300,House,HOUSE,165000,2,92,60,,,0,0,0,,0,,0,0
349,Ostende,Eernegem,51.1301894,3.0314603,20354411,8480,House,HOUSE,179000,3,104,296,2,Good,0,0,1,62,0,,0,0
350,Courtrai,Menen,50.8078729,3.1153693,20350456,8930,House,HOUSE,179000,2,130,103,2,Good,0,1,0,,1,33,0,0
351,Thuin,Macon,50.0509048,4.2037848,20331061,6591,Villa,HOUSE,170000,3,150,1874,4,Good,0,0,0,,0,,0,0
352,Mons,QUIÉVRAIN,50.4005801,3.688356,11339758,7380,House,HOUSE,99000,2,103,185,2,To restore,0,0,1,117,0,,0,0
353,Ypres,Nieuwkerke,50.7430143,2.8277683,20193992,8950,House,HOUSE,125000,2,137,254,4,Good,0,0,0,,1,8,0,0
354,Turnhout,HERENTALS,51.17323,4.834442699999999,20321986,2200,House,HOUSE,199000,3,106,119,2,To be done up,0,0,0,,0,,0,0
355,Eeklo,Eeklo,51.18996480000001,3.575476,20356160,9900,House,HOUSE,175000,2,169,93,,,0,0,0,,0,,0,0
356,Charleroi,Pont-à-Celles Viesville,50.4902248,4.408662,20295350,6230,Bungalow,HOUSE,120000,2,50,364,4,To be done up,0,0,1,300,1,20,0,0
357,Liège,Liège,50.6592811,5.6532238,20287391,4020,House,HOUSE,134000,3,116,739,2,To be done up,0,0,1,120,0,,0,0
358,Liège,Liège,50.64036249999999,5.597900999999999,20343933,4020,House,HOUSE,135000,3,,50,2,Good,0,0,0,,0,,0,0
359,Mons,QUAREGNON,50.4463409,3.859421,20306027,7390,House,HOUSE,110000,2,126,190,2,To renovate,0,0,0,,0,,0,0
360,Dinant,Hastière Agimont,50.158295,4.8117771,20326272,5544,House,HOUSE,189000,3,110,1716,4,Good,0,0,0,,1,35,0,0
361,Liège,Liège Grivegnée,50.6235508,5.59934,20313800,4030,House,HOUSE,195000,2,135,64,2,To be done up,0,1,0,,1,15,0,0
362,Verviers,OLNE,50.5899113,5.742532799999999,20330254,4877,House,HOUSE,199000,3,83,760,4,To renovate,0,0,1,300,0,,0,0
363,Huy,Engis,50.5875,5.405310399999999,20315728,4480,House,HOUSE,175000,3,133,150,2,Good,0,1,1,25,1,27,0,0
364,Roulers,LEDEGEM,50.8532971,3.1270059,20354852,8880,House,HOUSE,109000,4,150,240,3,To renovate,0,0,0,,0,,0,0
365,Charleroi,DAMPREMY,50.4206666,4.4338977,20355194,6020,House,HOUSE,120000,2,91,,2,Good,0,0,0,,0,,0,0
366,Audenarde,Brakel,50.79557399999999,3.7528747,20322486,9660,House,HOUSE,160000,3,138,337,,To renovate,0,0,0,,0,,0,0
367,Liège,Liège,50.63619449999999,5.601032900000001,20313886,4020,House,HOUSE,199000,2,155,200,2,Good,0,1,1,70,1,12,0,0
368,Charleroi,DAMPREMY,50.4213989,4.4322591,20334056,6020,House,HOUSE,100000,2,70,,3,To be done up,0,1,1,80,1,22,0,0
369,Audenarde,Lierde,50.80235279999999,3.826617,20330739,9570,House,HOUSE,125000,2,116,170,,To be done up,0,1,0,,0,,0,0
370,Liège,Grâce-Hollogne,50.633346,5.5016679,20343943,4460,House,HOUSE,179000,3,,241,3,Good,0,1,1,94,1,28,0,0
371,Ostende,Middelkerke,51.1537558,2.8452973,20344710,8433,House,HOUSE,199000,5,196,340,2,To renovate,0,0,1,190,0,,0,0
372,Alost,GERAARDSBERGEN,50.7527592,3.9165526,20318195,9500,House,HOUSE,175000,2,84,144,2,To be done up,0,0,0,,0,,0,0
373,Alost,GERAARDSBERGEN,50.7527592,3.9165526,20318202,9500,Mixed_Use_Building,HOUSE,175000,2,84,144,2,To be done up,0,0,0,,0,,0,0
374,Alost,GERAARDSBERGEN,50.7527325,3.9165651,20318230,9500,House,HOUSE,185000,2,85,161,2,Good,0,0,0,,0,,0,0
375,Liège,Seraing,50.5980241,5.5208559,20349286,4100,House,HOUSE,139000,4,127,140,2,,0,0,0,,0,,0,0
376,Saint-Nicolas,Lokeren,51.0855572,3.9575889,20348673,9160,House,HOUSE,180000,3,134,322,2,To renovate,0,0,1,200,1,20,0,0
377,Waremme,Hannut Trognée,50.6848831,5.122858300000001,20310702,4280,House,HOUSE,199000,3,184,576,3,Good,0,0,1,444,1,97,0,0
378,Huy,HUY,50.52637259999999,5.253368699999999,20313018,4500,House,HOUSE,179000,3,99,250,3,Good,0,0,0,,1,21,0,0
379,Neufchâteau,WELLIN,,,20363131,6920,Villa,HOUSE,189000,4,135,1000,3,To renovate,0,0,1,1000,0,,0,0
380,Neufchâteau,WELLIN,,,20363130,6920,House,HOUSE,189000,4,135,1000,3,To renovate,0,0,1,1000,0,,0,0
381,Ostende,Oostende,51.2119863,2.9080866,20242940,8400,House,HOUSE,175000,4,287,125,,To renovate,0,0,0,,0,,0,0
382,Ostende,Oostende,51.2119863,2.9080866,11329551,8400,House,HOUSE,175000,4,287,125,,To renovate,0,0,0,,0,,0,0
383,Liège,Flémalle,50.6135567,5.4803088,20293976,4400,House,HOUSE,199000,1,87,4961,3,Good,0,1,1,4850,1,20,0,0
384,Liège,Liège,50.6058959,5.6115682,20294451,4032,House,HOUSE,195000,2,115,143,2,Good,0,1,1,80,0,,0,0
385,Liège,Seraing,50.611701,5.5077432,20297764,4100,House,HOUSE,199900,6,217,220,2,To be done up,0,1,1,136,1,28,0,0
386,Liège,Seraing,50.60978550000001,5.512177299999999,20319785,4100,Mixed_Use_Building,HOUSE,139000,2,115,60,2,To renovate,0,0,0,,0,,0,0
387,Ath,Grosage,50.54825839999999,3.7590729,20230888,7950,House,HOUSE,140000,1,89,4000,4,Good,0,1,0,,0,,0,0
388,Dinant,Dinant,50.2629923,4.9114707,20297670,5500,Town_House,HOUSE,149000,3,150,78,,Good,0,0,1,78,1,20,0,0
389,Courtrai,Espierres-Helchin,50.7209832,3.3475324,20323622,8587,House,HOUSE,185000,3,120,311,2,To be done up,0,1,1,106,0,,0,0
390,Liège,Saint-Nicolas,50.6225992,5.535385199999999,20304002,4420,House,HOUSE,159000,3,240,295,2,To renovate,0,1,1,100,0,,0,0
391,Thuin,Thuin,50.3546032,4.2923542,20340630,6530,House,HOUSE,189000,3,165,953,3,To be done up,0,0,0,,1,27,0,0
392,Audenarde,Oudenaarde,50.8525654,3.5948633,20303163,9700,House,HOUSE,110000,4,100,180,2,To renovate,0,0,0,,0,,0,0
393,Liège,Liège,50.6689527,5.662364,20135829,4020,House,HOUSE,68000,1,64,142,2,To renovate,0,0,1,88,0,,0,0
394,Liège,Liège,50.6317387,5.588487,20112348,4020,House,HOUSE,99000,4,217,885,4,To restore,0,0,1,650,0,,0,0
395,Liège,Oupeye,50.7045568,5.6488444,20218547,4680,House,HOUSE,119000,2,97,135,4,To renovate,0,0,1,40,0,,0,0
396,Virton,Musson,49.5559148,5.7046516,20283743,6750,Farmhouse,HOUSE,120000,2,110,1187,4,To renovate,0,0,1,1000,0,,0,0
397,Neufchâteau,Libramont-Chevigny,49.913756,5.377582800000001,20109876,6800,House,HOUSE,129000,3,66,525,2,To renovate,0,1,1,450,1,5,0,0
398,Liège,Liège,50.6400824,5.598340299999999,20286168,4020,House,HOUSE,139000,4,128,129,2,To renovate,0,0,1,46,1,20,0,0
399,Liège,Flémalle,50.5858589,5.4144538,20277800,4400,House,HOUSE,144000,2,115,205,3,To be done up,0,1,1,85,1,30,1,0
400,Huy,MARCHIN,50.49762,5.238813899999999,20223819,4570,Country_Cottage,HOUSE,149000,2,99,1194,3,Good,0,0,1,1044,1,70,0,0
401,Liège,Juprelle,50.7245591,5.5148176,20217365,4452,House,HOUSE,159000,3,149,204,3,To be done up,1,1,1,20,0,,0,0
402,Liège,Seraing,50.5990542,5.508744099999999,20202153,4100,House,HOUSE,165000,2,100,85,3,Good,0,1,1,30,1,19,0,0
403,Liège,Liège,50.61161569999999,5.537942999999999,20053279,4000,House,HOUSE,169000,4,123,202,2,To renovate,0,0,1,107,1,10,0,0
404,Liège,ANGLEUR,50.61414689999999,5.581828499999999,20159592,4031,House,HOUSE,179000,4,203,352,2,To renovate,0,0,1,220,1,17,0,0
405,Liège,Jupille-sur-meuse,50.6345128,5.625697199999999,11374399,4020,House,HOUSE,189000,2,121,226,3,Good,0,1,1,114,1,51,0,0
406,Waremme,Saint-Georges-sur-Meuse,50.5836124,5.3467212,20161288,4470,House,HOUSE,189000,2,141,812,3,To renovate,0,0,1,639,0,,0,0
407,Dinant,Vresse-sur-Semois,49.8157702,4.9018587,20182026,5550,House,HOUSE,189000,3,182,360,3,Good,0,0,0,,0,,0,0
408,Liège,Sclessin,50.61099189999999,5.5523396,20142385,4000,House,HOUSE,199000,4,140,114,2,To renovate,0,0,1,34,1,5,0,0
409,Liège,Herstal,50.6698684,5.611897,20063947,4040,House,HOUSE,199000,5,207,240,3,To renovate,0,0,1,20,1,18,0,0
410,Liège,Seraing,50.5976575,5.5406996,20245215,4102,House,HOUSE,199900,3,131,160,2,As new,0,1,1,30,1,40,0,0
411,Liège,Seraing,50.60378919999999,5.5348202,20221839,4100,Mixed_Use_Building,HOUSE,200000,4,200,140,2,Good,0,1,1,30,1,30,0,0
412,Mons,JEMAPPES,,,20366248,7012,House,HOUSE,110000,2,123,280,2,To be done up,0,0,0,,0,,0,0
413,Mons,HORNU,,,20366728,7301,House,HOUSE,140000,2,100,140,2,To be done up,0,1,0,,1,26,0,0
414,Liège,Liège,50.6438075,5.5991412,20290146,4020,House,HOUSE,200000,3,130,162,2,Good,0,1,1,65,1,24,0,0
415,Termonde,WETTEREN,50.99794379999999,3.869447699999999,20345415,9230,House,HOUSE,198000,2,113,,2,,0,0,1,32,1,11,0,0
416,Namur,Fossesla-Ville Sart-Saint-Laurent,50.4011741,4.7441037,20344467,5070,Mansion,HOUSE,200000,3,198,,4,To renovate,0,0,0,,0,,0,0
417,Mouscron,Mouscron,,,20359464,7700,House,HOUSE,139000,2,122,192,3,Good,0,1,1,100,0,,0,0
418,Alost,Ninove,50.8470136,3.9749252,20347626,9400,House,HOUSE,199000,3,200,570,2,To renovate,0,0,1,250,0,,0,0
419,Liège,CHÊNEE,50.61086599999999,5.6171562,20332025,4032,House,HOUSE,80000,1,135,122,,To renovate,0,0,0,,1,45,0,0
420,Liège,Seraing,50.6048462,5.5145709,20311490,4100,House,HOUSE,99000,2,81,83,2,To be done up,0,1,0,,0,,0,0
421,Charleroi,Mont-sur-marchienne,50.4054963,4.4085222,20331554,6032,House,HOUSE,159000,4,165,160,2,Good,0,0,1,41,1,15,0,0
422,Furnes,Alveringem,50.93874710000001,2.6410484,20327723,8690,House,HOUSE,169000,4,201,372,,To be done up,0,1,0,,0,,0,0
423,Neufchâteau,Bertrix,49.8981682,5.211418500000001,20301594,6880,House,HOUSE,49000,4,145,167,3,Good,0,0,1,52,1,8,0,0
424,Saint-Nicolas,STEKENE,51.206678,4.079833,20312534,9190,House,HOUSE,185000,3,113,130,2,To be done up,0,1,0,,0,,0,0
425,Mons,BAISIEUX,,,20362088,7380,House,HOUSE,125000,3,148,760,3,To renovate,0,0,0,,0,,0,0
426,Courtrai,Wevelgem,50.8114502,3.1613974,20363124,8560,House,HOUSE,185000,2,105,69,,Good,0,0,0,,0,,0,0
427,Tournai,Pecq,,,20363903,7740,House,HOUSE,195000,3,180,529,2,To be done up,0,0,0,,1,41,0,0
428,Huy,ENGIS,50.5806164,5.403175699999999,20305023,4480,House,HOUSE,155000,4,138,260,3,To be done up,0,0,1,116,1,32,0,0
429,Charleroi,Manage La Hestre,50.467766,4.227878599999999,20356384,7170,House,HOUSE,85000,2,101,,3,To be done up,0,0,0,,0,,0,0
430,Liège,Seraing,50.59948,5.546326,20299838,4102,House,HOUSE,135000,3,108,152,2,To renovate,0,1,0,,1,32,0,0
431,Liège,Saint-Nicolas,50.6272634,5.5442902,20328546,4420,House,HOUSE,139000,1,68,40,2,Good,0,0,0,,0,,0,0
432,Marche-En-Famenne,Marche-en-Famenne,50.2296083,5.3450013,20311432,6900,Town_House,HOUSE,198500,3,114,274,,Good,0,0,1,274,0,,0,0
433,Alost,Geraardsbergen,50.7863646,3.9065654,20340131,9500,House,HOUSE,125000,2,109,300,2,To renovate,0,0,0,,0,,0,0
434,Alost,Geraardsbergen,50.7863646,3.9065654,20340132,9506,House,HOUSE,125000,2,109,300,2,To renovate,0,0,0,,0,,0,0
435,Liège,Saint-Nicolas,50.6273004,5.5383122,20308215,4420,Bungalow,HOUSE,155000,2,85,672,3,To be done up,0,0,1,550,1,50,0,0
436,Liège,Liège,50.6722505,5.6638607,20184647,4020,House,HOUSE,74000,2,73,82,3,To renovate,1,0,1,45,1,10,0,0
437,Ath,BRUGELETTE,50.58543950000001,3.8487991,20128134,7940,House,HOUSE,89000,3,128,440,4,To restore,0,0,1,350,1,20,0,0
438,Liège,Liège,50.66907639999999,5.6626009,20136247,4020,Apartment_Block,HOUSE,99000,3,109,198,2,To renovate,0,0,1,140,1,14,0,0
439,Virton,Musson Mussyla-Ville,49.5703432,5.6625969,20283736,6750,House,HOUSE,99000,3,180,104,2,To renovate,0,0,0,,0,,0,0
440,Neufchâteau,Neufchâteau,49.8392303,5.433608599999999,20166514,6840,House,HOUSE,110000,3,103,277,2,Good,0,0,1,111,1,9,0,0
441,Neufchâteau,Saint-Hubert,50.0243103,5.3706046,20284252,6870,House,HOUSE,124000,4,97,68,3,Good,0,0,0,,0,,0,0
442,Liège,Hermalle-sous-argenteau,50.70726630000001,5.6759667,20214974,4681,House,HOUSE,135000,2,60,77,2,To be done up,0,0,1,40,1,4,0,0
443,Virton,Saint-Léger Meixle-Tige,49.6155358,5.718308899999999,20283730,6747,House,HOUSE,140000,3,140,600,2,To renovate,0,0,1,490,0,,0,0
444,Anvers,ANTWERPEN,51.2249059,4.4386293,11394204,2060,Mixed_Use_Building,HOUSE,149000,,67,73,3,Just renovated,0,0,1,10,1,10,0,0
445,Anvers,ANTWERPEN,51.2249059,4.4386293,11393970,2060,Mixed_Use_Building,HOUSE,149000,,67,73,3,Just renovated,0,0,1,10,1,10,0,0
446,Liège,Comblain-au-Pont,50.5063483,5.5721715,20119205,4171,House,HOUSE,150000,3,104,193,4,To be done up,0,1,1,15,1,15,0,0
447,Liège,Liège,50.636046,5.594036500000001,20096508,4020,House,HOUSE,165000,3,126,165,2,Good,0,0,1,112,1,26,1,0
448,Liège,Grâce-Hollogne,50.6263122,5.502080599999999,20186616,4460,House,HOUSE,169000,2,110,290,3,To renovate,0,1,1,178,1,25,0,0
449,Dinant,Bièvre,49.9387698,5.0223885,20250684,5555,House,HOUSE,170000,4,168,385,3,To be done up,0,1,1,200,0,,0,0
450,Liège,Liège,50.6149519,5.6152745,20185159,4032,House,HOUSE,175000,2,90,170,2,To be done up,0,0,1,110,0,,0,0
451,Audenarde,Ronse,50.75343789999999,3.593336,10987957,9600,House,HOUSE,175000,4,194,200,2,To be done up,0,0,1,100,1,20,0,0
452,Hal-Vilvorde,LEMBEEK,50.7044753,4.2375041,20176332,1502,House,HOUSE,178000,2,106,270,3,To renovate,0,0,1,189,0,,0,0
453,Audenarde,Ronse,50.7511489,3.6095557,20184278,9600,House,HOUSE,179000,5,213,387,3,To be done up,0,0,1,200,1,20,0,0
454,Liège,Flémalle,50.5878461,5.462627299999999,20230748,4400,House,HOUSE,185000,2,125,200,2,Good,0,1,1,150,1,10,0,0
455,Neufchâteau,Libramont-Chevigny,49.9247264,5.3778882,20289758,6800,House,HOUSE,188000,3,90,294,2,To be done up,0,0,0,,0,,0,0
456,Dinant,Gedinne Bourseigne-Vieille,50.02187730000001,4.872297,20258731,5575,House,HOUSE,190000,3,133,878,3,To be done up,0,1,1,700,1,10,0,0
457,Dinant,Beauraing Honnay,50.0816488,5.0393176,20279885,5570,Country_Cottage,HOUSE,195000,3,139,1441,4,To renovate,0,0,0,,0,,1,0
458,Dinant,Gedinne Rienne,49.9957106,4.884909,20237241,5575,House,HOUSE,199000,3,107,1260,3,Good,0,1,1,1160,0,,0,0
459,Soignies,BOIS-DE-LESSINES,50.7116349,3.8362889,20356895,7860,House,HOUSE,150000,3,,70,,To renovate,0,0,0,,0,,0,0
460,Soignies,BOIS-DE-LESSINES,50.7116349,3.8362889,20356894,7860,Mixed_Use_Building,HOUSE,150000,3,,70,,To renovate,0,0,0,,0,,0,0
461,Turnhout,TURNHOUT,51.3201345,4.939479299999999,20325644,2300,House,HOUSE,159000,2,191,174,2,To renovate,0,0,0,,0,,0,0
462,Hal-Vilvorde,Ruisbroek,50.7942456,4.2988811,20353883,1601,House,HOUSE,175000,3,121,75,2,To be done up,0,0,0,,0,,0,0
463,Ypres,Wervik,50.7827137,3.0468596,20356863,8940,House,HOUSE,179000,2,140,164,2,Good,0,0,0,,0,,0,0
464,Saint-Nicolas,STEKENE,51.2071452,4.045877,20325912,9190,House,HOUSE,188000,3,107,284,2,To renovate,0,0,0,,0,,0,0
465,Ypres,NIEUWKERKE,50.7448109,2.8252678,20354859,8950,House,HOUSE,189000,2,158,,2,Good,0,0,0,,0,,0,0
466,Bruges,Brugge,51.2093828,3.2384937,20334292,8000,House,HOUSE,199000,1,81,51,2,Good,0,1,0,,1,16,0,0
467,Liège,Aywaille,50.4594797,5.671183099999999,20366409,4920,House,HOUSE,119000,4,103,345,4,Good,0,0,1,67,0,,0,0
468,Charleroi,Pont-à-Celles,50.48832059999999,4.4083383,20289930,6230,House,HOUSE,160000,3,160,460,3,To renovate,0,0,1,250,0,,0,0
469,Virton,SOMMETHONNE,49.5754693,5.4495568,20320594,6769,House,HOUSE,169000,2,126,1040,2,To be done up,0,0,0,,0,,0,0
470,Dixmude,Bovekerke,51.06364079999999,2.9631913,20279565,8680,House,HOUSE,184000,3,134,987,,To renovate,0,0,0,,0,,0,0
471,Ath,ARC-WATTRIPONT,50.7271039,3.5474447,20341449,7910,House,HOUSE,115000,2,107,140,3,To renovate,0,0,0,,0,,0,0
472,Liège,Tilff,50.5698461,5.5935619,20341277,4130,House,HOUSE,190000,3,130,472,3,To renovate,0,0,0,,1,40,0,0
473,Roulers,Roeselare,50.9440658,3.1213367,20305942,8800,House,HOUSE,155000,5,149,98,,To renovate,0,0,0,,0,,0,0
474,Liège,Oupeye,50.6973718,5.6531502,20283308,4680,House,HOUSE,164000,3,115,170,3,Good,1,0,1,40,1,20,0,0
475,Liège,Seraing,50.5894938,5.5011307,20336316,4100,House,HOUSE,198000,2,130,117,2,As new,0,1,1,40,1,19,0,0
476,Mons,DOUR,,,20362030,7370,House,HOUSE,80000,2,105,270,3,To renovate,0,0,0,,1,34,0,0
477,Verviers,Verviers,,,20363108,4800,Apartment_Block,HOUSE,169000,6,251,99,2,Good,0,1,0,,1,31,0,0
478,Charleroi,Courcelles,50.4633684,4.3750097,20292097,6180,House,HOUSE,179900,3,170,219,2,Good,0,1,1,154,1,56,0,0
479,Soignies,Le Roeulx,,,20355065,7070,House,HOUSE,189000,3,116,301,2,As new,0,0,0,,0,,0,0
480,Tournai,Tournai,,,20357406,7500,House,HOUSE,189000,4,165,280,2,To be done up,0,0,1,170,1,10,0,0
481,Liège,CHOKIER,50.5886813,5.4220123,20338004,4400,House,HOUSE,99000,1,64,41,2,Good,0,1,0,,0,,0,0
482,Ostende,WESTENDE,51.1517894,2.7732346,20347373,8434,House,HOUSE,140000,2,52,,,Good,0,0,0,,0,,1,0
483,Dinant,Yvoir,50.33392,4.90372,20297767,5530,Country_Cottage,HOUSE,115000,1,55,207,,Good,1,0,1,207,0,,0,1
484,Ypres,Poperinge,50.8533361,2.7309558,20317759,8970,House,HOUSE,115000,3,144,100,2,To renovate,0,0,0,,0,,0,0
485,Liège,Flémalle,50.6133412,5.4801081,20314632,4400,House,HOUSE,120000,2,98,630,3,Good,0,1,1,510,1,16,0,0
486,Charleroi,MANAGE,50.5034607,4.238544399999999,20326963,7160,House,HOUSE,128000,2,98,,2,Good,0,0,1,45,0,,0,0
487,Liège,Liège,50.611044,5.539077,20321826,4000,House,HOUSE,159000,2,142,158,2,Good,0,0,1,73,1,13,0,0
488,Dinant,Dinant,50.27176,4.903497499999999,20297655,5500,Town_House,HOUSE,175000,3,130,700,,Good,1,0,1,700,0,,0,0
489,Roulers,Lichtervelde,51.0242401,3.1302695,20341134,8810,House,HOUSE,160000,3,100,155,3,To restore,0,0,0,,0,,0,0
490,Liège,MILMORT,50.6856395,5.591991,20205215,4041,House,HOUSE,175000,4,120,176,3,To be done up,0,1,1,63,0,,0,0
491,Malines,BEVEL,51.13689919999999,4.6876042,20306150,2560,House,HOUSE,198000,2,89,366,3,To renovate,0,0,1,180,1,15,0,0
492,Charleroi,Couillet,50.3789805,4.4610236,20176088,6010,House,HOUSE,99000,2,88,350,2,To renovate,0,0,1,240,1,60,0,0
493,Soignies,La Louvière,50.4808793,4.2031895,20121079,7100,House,HOUSE,119000,2,122,200,3,To renovate,0,0,1,85,1,15,0,0
494,Mons,Quaregnon,50.42325659999999,3.8668446,20245174,7390,House,HOUSE,140000,3,186,310,3,To renovate,0,0,1,90,0,,0,0
495,Liège,Seraing,50.59583689999999,5.5252424,20181204,4100,House,HOUSE,149900,3,92,250,3,Good,0,1,1,100,1,10,0,0
496,Huy,Amay,50.5386377,5.280785700000001,20221831,4540,House,HOUSE,150000,4,132,443,3,To renovate,0,0,1,237,0,,0,0
497,Dinant,BEAURAING,50.1492562,4.975457899999999,20091769,5570,House,HOUSE,150000,3,83,242,2,To be done up,0,0,0,,1,20,0,0
498,Liège,Liège Angleur,50.5968122,5.591092,20118256,4031,House,HOUSE,159000,2,96,640,4,As new,0,0,1,225,1,42,0,0
499,Audenarde,Oudenaarde,50.8748057,3.6225559,20251399,9700,House,HOUSE,165000,3,117,293,2,To renovate,0,0,0,,0,,1,0
500,Liège,Liège,50.643391,5.603553,20240713,4020,House,HOUSE,169000,2,98,172,2,Good,0,0,1,97,1,20,0,0
501,Liège,Seraing Ougrée,50.5976462,5.536041099999999,20148911,4102,Town_House,HOUSE,169000,3,112,240,2,To renovate,0,0,1,140,0,,0,0
502,Huy,WARZÉE,50.4479453,5.4233064,20202993,4590,House,HOUSE,169000,3,125,829,3,To renovate,1,0,1,650,1,70,0,0
503,Liège,Seraing,50.6060278,5.513294399999999,20122600,4100,House,HOUSE,175000,3,117,165,2,Just renovated,0,1,1,93,1,20,0,0
504,Liège,FLÉMALLE,50.6007725,5.4689339,11371237,4400,House,HOUSE,179000,4,222,273,2,To restore,0,0,1,140,0,,0,0
505,Dinant,Rochefort,50.1633345,5.265000199999999,20077704,5580,House,HOUSE,179000,4,146,161,2,Good,0,1,1,161,1,60,0,0
506,Philippeville,Vodelée,50.1699973,4.7299225,20209848,5680,House,HOUSE,180000,3,205,1230,3,To renovate,1,0,1,900,0,,0,0
507,Neufchâteau,WELLIN,50.0768397,5.0922223,20100821,6920,House,HOUSE,180000,4,172,588,3,To renovate,0,0,1,588,0,,0,0
508,Marche-En-Famenne,Nassogne,50.1274076,5.3477881,20215816,6950,House,HOUSE,180000,2,108,322,4,To be done up,0,0,1,322,0,,0,0
509,Liège,Seraing,50.6065978,5.515326700000001,20148086,4100,House,HOUSE,185000,4,129,210,3,Good,0,0,1,126,1,10,0,0
510,Marche-En-Famenne,Marche-en-Famenne,50.1678886,5.2847868,20017054,6900,House,HOUSE,185000,3,142,2131,4,Good,0,0,1,2131,0,,0,0
511,Charleroi,Charleroi,50.4180226,4.3808178,20192653,6031,House,HOUSE,190000,2,117,1100,3,To renovate,0,1,1,800,1,25,0,0
512,Bastogne,Houffalize,50.128482,5.790047299999999,20300144,6660,House,HOUSE,195000,4,163,251,2,Good,0,0,1,1,1,1,0,0
513,Charleroi,Marcinelle,50.4019431,4.4455213,20258226,6001,Mixed_Use_Building,HOUSE,199000,4,265,340,2,To be done up,0,0,1,196,0,,1,0
514,Charleroi,Charleroi,50.4158137,4.4604114,11221815,6061,House,HOUSE,199000,3,115,110,2,As new,0,1,1,20,0,,0,0
515,Ath,Frasnes-lez-Anvaing,50.7262156,3.5872752,11374402,7912,House,HOUSE,199000,3,160,700,3,Good,0,0,1,500,1,30,0,0
516,Charleroi,Aiseau,50.40684719999999,4.5920282,20064358,6250,House,HOUSE,199999,3,184,653,4,As new,0,1,1,600,1,60,0,0
517,Liège,Seraing,50.60594469999999,5.5219456,11075995,4100,House,HOUSE,200000,4,155,77,2,Good,0,1,1,140,1,13,0,0
518,Alost,AALST,50.9435587,4.0466556,20333620,9300,House,HOUSE,149000,2,113,60,2,To renovate,0,0,0,,0,,0,0
519,Dinant,Dinant,,,20366121,5500,House,HOUSE,98000,3,161,740,2,To renovate,0,0,1,653,0,,0,0
520,Liège,SERAING,50.6210493,5.489864499999999,20321129,4101,House,HOUSE,139000,2,75,57,2,To be done up,0,0,1,57,1,17,0,0
521,Courtrai,Anzegem,50.824622,3.4925907,20316718,8570,House,HOUSE,179000,5,190,224,2,To renovate,0,0,0,,0,,0,0
522,Charleroi,Charleroi Gilly,50.43225,4.4682785,20340058,6060,House,HOUSE,109000,2,160,586,3,To renovate,0,0,0,,0,,0,0
523,Ostende,Oostende,51.2199363,2.9010027,20086802,8400,House,HOUSE,199000,4,159,103,,Good,0,0,0,,0,,0,0
524,Mons,AUDREGNIES,,,20353096,7382,House,HOUSE,160000,3,121,294,4,To renovate,0,0,0,,0,,0,0
525,Soignies,La Louvière,50.48005329999999,4.1955482,20347204,7100,House,HOUSE,169000,3,218,145,3,,0,0,0,,0,,0,0
526,Dinant,Dion,50.1182999,4.8888339,20329282,5570,House,HOUSE,195000,5,160,415,4,To restore,1,0,1,200,0,,0,0
527,Courtrai,Wevelgem,50.8115757,3.1805486,20332570,8560,House,HOUSE,185000,3,193,488,2,Good,0,0,0,,0,,0,0
528,Mons,ELOUGES,,,20358004,7370,House,HOUSE,110000,4,85,311,2,To renovate,0,1,1,90,1,38,0,0
529,Courtrai,Hulste,50.8777977,3.297057,20356685,8531,House,HOUSE,175000,3,172,550,3,Good,0,0,0,,0,,0,0
530,Soignies,TRIVIÈRES,,,20358192,7100,House,HOUSE,195000,2,154,519,2,Just renovated,0,1,1,450,1,20,0,0
531,Soignies,La Louvière Trivières,50.4698893,4.151578499999999,20338516,7100,House,HOUSE,129999,4,173,190,2,Good,0,0,0,,0,,0,0
532,Roulers,Roeselare,50.9613527,3.1084144,20333564,8800,House,HOUSE,195000,4,133,262,,To restore,0,0,0,,0,,0,0
533,Liège,Juprelle,50.6873188,5.5203497,20287396,4450,House,HOUSE,119000,1,62,40,2,As new,0,1,0,,0,,0,0
534,Huy,WANZE,50.54014300000001,5.2210803,20298081,4520,House,HOUSE,199000,3,110,707,4,Good,0,0,1,450,0,,0,0
535,Tournai,Tournai,50.6065759,3.3908833,20347112,7500,Mixed_Use_Building,HOUSE,119000,,120,53,2,To be done up,0,0,0,,0,,0,0
536,Soignies,La Louvière Houdeng-Goegnies,50.4866312,4.1600304,20317216,7110,House,HOUSE,89000,3,104,1110,2,To be done up,0,0,0,,0,,0,0
537,Soignies,La Louvière Houdeng-Goegnies,50.4791833,4.159530699999999,20317047,7110,House,HOUSE,115000,2,104,295,3,To be done up,0,1,0,,0,,0,0
538,Liège,Liège Chênée,50.6208052,5.6263046,20307845,4032,House,HOUSE,135000,2,85,170,4,To renovate,0,0,1,68,0,,0,0
539,Liège,Liège Chênée,50.6208052,5.6263046,20307633,4032,House,HOUSE,175000,2,85,300,4,To renovate,0,0,1,250,0,,0,0
540,Soignies,Bois-de-lessines,50.6948191,3.8880052,20295285,7866,Villa,HOUSE,184000,2,152,690,4,Good,0,0,0,,0,,0,0
541,Huy,Ocquier,50.3953889,5.3934443,20184229,4560,House,HOUSE,199000,2,160,102,3,As new,0,1,1,32,0,,0,0
542,Charleroi,Courcelles,50.4568969,4.3874647,20315883,6180,House,HOUSE,139000,2,85,350,3,To be done up,0,0,0,,0,,0,0
543,Philippeville,Rosée,50.2314665,4.6890542,20305855,5620,House,HOUSE,160000,4,115,240,2,Good,0,1,1,120,0,,0,0
544,Neufchâteau,OPONT,49.9348642,5.1207172,20223418,6852,House,HOUSE,179000,3,130,321,3,Good,0,1,0,,0,,0,0
545,Liège,Oupeye,50.698778,5.6463579,20069785,4680,House,HOUSE,99000,2,92,102,2,To renovate,0,0,0,,1,20,0,0
546,Dinant,Gedinne,49.9796776,4.9390529,20279361,5575,House,HOUSE,119000,1,47,100,4,Good,0,0,1,30,1,10,0,0
547,Liège,GRÂCE-BERLEUR,50.6429291,5.5066149,20246094,4460,House,HOUSE,130000,2,76,190,2,To renovate,0,0,1,105,1,20,0,0
548,Liège,Ayeneux,50.6078684,5.7174421,20143343,4630,House,HOUSE,145000,1,95,32,2,To be done up,0,0,0,,0,,0,0
549,Liège,Liège,50.6731425,5.6642701,20268058,4020,House,HOUSE,149000,1,70,45,2,Good,0,1,0,,1,10,0,0
550,Liège,Liège,50.642471,5.59999,20249767,4020,House,HOUSE,149000,5,152,76,2,To be done up,0,0,0,,0,,0,0
551,Huy,WANZE,50.53427,5.20853,20250830,4520,House,HOUSE,149000,2,151,840,3,Good,0,0,1,635,1,35,0,0
552,Liège,Visé,50.68551730000001,5.6760905,20184408,4602,House,HOUSE,149000,3,97,50,2,As new,0,1,0,,1,19,0,0
553,Liège,Seraing,50.5922591,5.4932367,11440186,4100,House,HOUSE,149900,2,75,110,3,To renovate,0,0,1,45,0,,0,0
554,Liège,Ans,50.6674899,5.539158,20121017,4430,House,HOUSE,149900,3,82,140,3,Good,0,0,1,70,1,12,1,0
555,Audenarde,Oudenaarde,50.83236549999999,3.6066474,20066689,9700,House,HOUSE,155000,3,125,272,3,To renovate,0,0,0,,0,,0,0
556,Liège,Seraing,50.5869095,5.515083100000001,11443359,4100,House,HOUSE,159000,1,85,220,2,Just renovated,0,1,1,115,1,10,0,0
557,Neufchâteau,PALISEUL,49.8671346,5.1597282,20179281,6850,House,HOUSE,165000,3,156,299,3,Good,0,0,0,,0,,0,0
558,Liège,Liège,50.6314964,5.546383,11422040,4000,House,HOUSE,169000,3,92,60,2,Good,0,1,0,,1,8,0,0
559,Neufchâteau,Bouillon,49.7968239,5.0733961,20138107,6830,House,HOUSE,169000,4,120,180,2,Just renovated,0,1,1,130,1,10,0,0
560,Liège,Seraing,50.5925013,5.5050471,20177313,4100,House,HOUSE,170000,1,63,159,2,Good,0,1,1,45,1,20,0,0
561,Malines,LIER,51.1287719,4.5844001,20251794,2500,House,HOUSE,175000,1,61,85,2,Good,0,0,1,52,1,16,0,0
562,Liège,Seraing,50.6109944,5.490488399999999,20244604,4101,House,HOUSE,175000,4,135,330,2,Good,0,1,1,160,1,40,0,0
563,Liège,Grâce-Hollogne,50.63098309999999,5.4696063,20048925,4460,House,HOUSE,175000,2,70,190,2,Just renovated,0,1,1,80,1,40,0,0
564,Liège,Soumagne,50.6103533,5.7114346,20138625,4630,House,HOUSE,175000,2,102,389,3,Good,0,1,1,262,0,,0,0
565,Termonde,WETTEREN,50.9983218,3.8735943,20270591,9230,House,HOUSE,175000,2,109,467,,To renovate,0,0,1,274,1,70,0,0
566,Liège,Bressoux,50.6423729,5.6003421,20076293,4020,House,HOUSE,179000,4,134,69,2,To be done up,0,1,0,,0,,0,0
567,Liège,Flémalle,50.6025265,5.473089499999999,11243506,4400,House,HOUSE,179000,2,108,340,3,Good,0,0,1,252,1,21,0,0
568,Alost,Lede,50.9658857,3.9758998,20220249,9340,House,HOUSE,179000,2,91,139,2,To be done up,0,1,1,52,1,13,0,0
569,Gand,Gavere,50.9099075,3.6456113,20198637,9890,House,HOUSE,179000,6,210,359,3,To renovate,0,0,0,,0,,0,0
570,Audenarde,Ronse,50.7500881,3.5880093,20287683,9600,House,HOUSE,180000,4,150,120,,Good,0,1,0,,1,46,0,0
571,Nivelles,Genappe,50.6115842,4.450807,20096563,1470,House,HOUSE,185000,3,200,96,2,To be done up,0,0,0,,0,,0,0
572,Liège,Liège,50.6605424,5.56893,20160037,4000,House,HOUSE,189000,3,145,800,2,Good,0,1,1,70,1,85,1,0
573,Waremme,BRAIVES,50.6239037,5.1603204,20187989,4260,House,HOUSE,189000,2,133,547,2,Good,0,1,1,314,1,12,0,0
574,Liège,Seraing,50.58550049999999,5.5181762,20193646,4100,House,HOUSE,195000,2,107,276,2,Good,0,1,1,50,1,67,0,0
575,Liège,Liège,50.6392131,5.5428283,20160102,4000,House,HOUSE,198000,3,202,145,2,To renovate,0,0,1,30,1,30,0,0
576,Turnhout,TURNHOUT,51.3176914,4.949340299999999,20144373,2300,House,HOUSE,199000,2,124,144,3,To be done up,0,1,0,,0,,0,0
577,Liège,Liege,50.60484650000001,5.6051168,20148731,4031,House,HOUSE,199000,5,173,231,2,To be done up,0,1,0,,0,,0,0
578,Liège,Liège Chênée,50.6156274,5.6151322,20281466,4032,House,HOUSE,199000,3,110,95,2,Good,0,1,1,35,1,35,0,0
579,Liège,CHÊNÉE,50.6112658,5.6181965,20188310,4032,House,HOUSE,199000,3,158,195,2,Good,0,1,1,75,1,8,0,0
580,Liège,Seraing,50.6047912,5.5141076,11448130,4100,House,HOUSE,199000,4,160,285,2,Just renovated,0,1,1,160,1,80,0,0
581,Liège,Seraing,50.6176389,5.494954,11343626,4101,House,HOUSE,199000,4,140,540,3,To be done up,0,0,1,360,1,30,0,0
582,Liège,FLÉMALLE-HAUTE,50.6130225,5.4254458,20135345,4400,House,HOUSE,199000,2,136,335,2,Good,0,0,1,140,0,,0,0
583,Huy,Huy,50.5336874,5.2275428,20258893,4500,House,HOUSE,199000,3,150,968,4,To renovate,0,0,1,200,1,20,0,0
584,Audenarde,Ronse,50.7466501,3.609486299999999,20051726,9600,House,HOUSE,199000,2,90,140,2,Good,0,0,0,,0,,0,0
585,Liège,Herstal,50.6725887,5.627167399999999,20132766,4040,Bungalow,HOUSE,200000,3,98,317,4,Good,0,1,0,,1,28,0,0
586,Liège,Liège,50.6634413,5.5749866,20312081,4000,House,HOUSE,169000,4,137,215,2,To renovate,0,0,1,112,0,,0,0
587,Audenarde,RONSE,50.7472378,3.5957268,20355530,9600,House,HOUSE,189000,5,300,209,,To renovate,0,0,0,,0,,0,0
588,Namur,RIVIÈRE,50.3618548,4.8584906,20334491,5170,House,HOUSE,140000,5,189,2198,4,,0,0,1,2100,1,50,0,0
589,Charleroi,Courcelles,50.4633334,4.3997307,20270947,6180,House,HOUSE,160000,3,198,100,3,Good,0,1,0,,1,10,0,0
590,Namur,Fosses-la-Ville,50.3757181,4.7000271,20298744,5070,House,HOUSE,199000,2,95,984,4,Good,0,0,1,984,0,,0,0
591,Eeklo,KAPRIJKE,51.216657,3.620541,20344451,9970,House,HOUSE,195000,3,,328,3,To renovate,0,0,0,,0,,0,0
592,Neufchâteau,MORTEHAN,49.79793069999999,5.2054484,20346085,6880,House,HOUSE,199000,4,88,2313,2,,1,0,0,,0,,0,0
593,Courtrai,WEVELGEM,50.81375629999999,3.1791709,20319524,8560,House,HOUSE,185000,3,100,870,3,To renovate,0,0,1,544,0,,0,0
594,Liège,Seraing,50.5991308,5.5220765,20296792,4100,Apartment_Block,HOUSE,189000,3,220,100,2,Good,0,1,0,,1,10,0,0
595,Roulers,Lichtervelde,51.0237578,3.1259659,20308971,8810,House,HOUSE,195000,2,143,212,,To be done up,0,1,0,,0,,0,0
596,Huy,HUY,50.5281697,5.2508528,20294680,4500,House,HOUSE,179000,3,105,360,3,Good,0,0,1,148,1,24,0,0
597,Mons,QUAREGNON,,,20350159,7390,House,HOUSE,125000,2,106,110,2,To renovate,0,0,0,,0,,0,0
598,Saint-Nicolas,LOKEREN,51.104011,4.001397799999999,20331572,9160,House,HOUSE,149000,3,103,110,2,To renovate,0,0,0,,0,,0,0
599,Liège,Seraing,50.6095143,5.5127345,20304007,4100,Mixed_Use_Building,HOUSE,189000,4,218,103,2,Good,0,0,0,,1,38,0,0
600,Mons,Colfontaine,,,20362977,7340,House,HOUSE,140000,3,90,120,3,Good,0,1,0,,1,12,0,0
601,Courtrai,Kortrijk,50.8350387,3.2610031,20362344,8500,House,HOUSE,195000,3,173,72,2,,0,0,1,8,0,,0,0
602,Mons,Quaregnon,50.4344657,3.8649079,20124488,7390,House,HOUSE,79000,2,77,180,2,To be done up,0,0,1,100,0,,0,0
603,Liège,Sprimont,50.5099324,5.6017435,20325283,4140,House,HOUSE,169000,4,122,,2,To renovate,1,0,0,,0,,0,0
604,Liège,Seraing,50.59948,5.546326,20299830,4102,House,HOUSE,89000,2,60,84,2,To renovate,0,1,0,,1,10,0,0
605,Huy,Huy,50.5129432,5.2407883,20316907,4500,House,HOUSE,69000,4,145,40,2,,0,0,0,,0,,0,0
606,Dinant,Yvoir,50.33392,4.90372,20297745,5530,Country_Cottage,HOUSE,99000,2,40,262,,Just renovated,0,0,1,262,1,16,1,0
607,Dinant,Yvoir,50.33198,4.90688,20297665,5530,House,HOUSE,120000,2,60,200,,Good,0,0,0,,1,10,0,0
608,Dinant,Hastière,50.2059137,4.8079116,20297738,5540,Country_Cottage,HOUSE,140000,1,42,255,,Good,1,0,1,255,1,22,0,0
609,Liège,ANS,50.6613335,5.5164237,20326803,4430,House,HOUSE,149000,2,114,135,2,,0,0,0,,0,,0,0
610,Huy,Huy,50.517751,5.2407069,20328802,4500,Mixed_Use_Building,HOUSE,169000,4,103,68,2,,0,0,0,,0,,0,0
611,Dinant,Dinant,50.2633805,4.9133141,20315517,5500,House,HOUSE,179000,2,124,950,3,Good,0,0,0,,1,9,0,0
612,Neufchâteau,"Libin, Ochamps",49.9256286,5.279230099999999,20315023,6890,House,HOUSE,189000,3,102,708,2,Good,0,0,1,600,1,10,0,0
613,Charleroi,Manage,50.5045861,4.229964,20317215,7170,House,HOUSE,195000,3,172,660,3,To be done up,0,0,0,,0,,0,0
614,Nivelles,Nivelles,50.5991262,4.33672,20267331,1400,House,HOUSE,199000,4,135,130,2,,0,0,0,,0,,0,0
615,Mons,COLFONTAINE,,,20361260,7340,House,HOUSE,120000,2,75,194,2,Good,0,0,0,,1,76,0,0
616,Charleroi,WANFERCÉE-BAULET,50.47140950000001,4.585560699999999,20306338,6224,House,HOUSE,149900,3,,139,3,To renovate,0,0,1,139,0,,0,0
617,Neufchâteau,Bouillon,49.79409880000001,5.067652300000001,20257829,6830,House,HOUSE,27500,2,62,48,2,To renovate,0,0,0,,0,,0,0
618,Liège,Liège,50.66907639999999,5.6626009,20136248,4020,House,HOUSE,57000,2,45,56,2,To renovate,0,0,0,,1,14,0,0
619,Liège,Chaudfontaine,50.593696,5.634640099999999,20184665,4050,House,HOUSE,70000,2,65,371,4,To renovate,0,0,1,250,1,10,0,0
620,Dinant,Somme-Leuze,50.3001076,5.3571252,20266716,5377,Chalet,HOUSE,79000,1,44,296,4,Good,0,0,1,296,0,,0,0
621,Mons,Frameries,50.4064639,3.8898655,20147275,7080,House,HOUSE,85000,2,95,90,2,To renovate,0,0,1,45,1,4,0,0
622,Liège,Liège,50.6721395,5.6642367,20199118,4020,House,HOUSE,99000,2,71,50,3,Good,0,0,0,,0,,0,0
623,Charleroi,COURCELLES,50.4538427,4.3863601,20028868,6180,House,HOUSE,109000,2,152,1142,3,To renovate,0,0,1,700,0,,0,0
624,Mons,Frameries La Bouverie,50.4004924,3.8720863,20123059,7080,House,HOUSE,125000,1,82,190,2,To be done up,0,0,1,70,1,9,0,0
625,Verviers,Verviers,50.5843457,5.885614299999999,20161507,4801,House,HOUSE,130000,1,65,300,2,To be done up,0,1,0,,1,21,0,0
626,Huy,Amay,50.5500777,5.317080900000001,20196014,4540,House,HOUSE,135000,2,68,67,2,Good,0,1,0,,1,15,0,0
627,Audenarde,Ronse,50.74512989999999,3.6101343,20230361,9600,House,HOUSE,139000,3,180,130,2,To renovate,0,0,1,20,0,,0,0
628,Audenarde,Ronse,50.752586,3.6056746,20127994,9600,House,HOUSE,145000,4,164,89,2,To be done up,0,1,0,,1,9,0,0
629,Dinant,Jemelle,50.16337370000001,5.2593188,11472859,5580,House,HOUSE,146000,2,109,136,3,To be done up,0,1,1,194,0,,0,0
630,Soignies,La Louvière,50.4829664,4.1569698,20219331,7110,House,HOUSE,149000,2,132,100,2,To be done up,0,0,1,54,1,10,0,0
631,Liège,Seraing,50.6195361,5.496300799999999,20077515,4101,Mixed_Use_Building,HOUSE,150000,2,190,180,2,Good,0,1,1,90,0,,0,0
632,Liège,Flémalle,50.5843668,5.4640774,20265892,4400,House,HOUSE,155000,2,75,13,4,Just renovated,0,1,0,,1,13,0,0
633,Charleroi,Pont-à-Celles Luttre,50.510603,4.393017,11058230,6238,House,HOUSE,160000,4,150,3022,3,To renovate,0,0,1,2900,0,,0,0
634,Liège,FLÉMALLE-HAUTE,50.6075274,5.455118,11324703,4400,Apartment_Block,HOUSE,165000,3,122,328,2,To renovate,0,0,1,170,1,43,0,0
635,Liège,FLÉMALLE-HAUTE,50.6075274,5.455118,11324702,4400,House,HOUSE,165000,3,122,328,2,To renovate,0,0,1,170,1,43,0,0
636,Liège,Seraing,50.5925252,5.492833099999999,20104449,4100,House,HOUSE,169000,3,115,310,2,To be done up,0,0,1,195,1,20,0,0
637,Liège,Seraing Ougrée,50.6000496,5.5407761,20148822,4102,Town_House,HOUSE,169000,2,160,121,2,Good,0,1,1,52,1,40,0,0
638,Charleroi,Charleroi Lodelinsart,50.4315928,4.448441499999999,20001131,6042,House,HOUSE,169000,6,280,200,3,Good,0,1,1,80,1,20,0,0
639,Bastogne,Vaux-sur-Sûre,49.87964419999999,5.5490528,20230271,6642,House,HOUSE,169000,3,189,150,4,To be done up,0,1,0,,1,28,0,0
640,Eeklo,Zelzate,51.19912069999999,3.7947952,20117672,9060,House,HOUSE,169000,4,130,90,2,To renovate,0,0,0,,0,,0,0
641,Charleroi,Pont-à-Celles,50.49116069999999,4.4058499,20272119,6230,House,HOUSE,169900,2,115,690,2,To be done up,0,1,1,550,1,12,0,0
642,Liège,Seraing,50.6074466,5.513522699999999,20071499,4100,House,HOUSE,175000,3,150,150,3,Just renovated,0,1,1,30,0,,0,0
643,Liège,FLÉMALLE,50.6016643,5.4463646,11488238,4400,House,HOUSE,175000,3,130,362,3,To renovate,0,0,1,98,1,60,0,0
644,Dinant,Dinant,50.2045417,4.8637522,20006472,5500,House,HOUSE,179000,4,191,1014,3,To be done up,0,1,0,,0,,0,0
645,Charleroi,Pont-à-Celles,50.4834188,4.3958378,20231181,6230,House,HOUSE,179900,3,230,896,2,To renovate,0,0,1,470,1,118,0,0
646,Anvers,ANTWERPEN,51.2066937,4.4323577,20238498,2018,Mixed_Use_Building,HOUSE,189000,1,45,72,3,Good,0,0,0,,0,,0,0
647,Malines,NIJLEN,51.15867,4.6715,20274887,2560,House,HOUSE,189000,3,129,650,3,To renovate,0,0,1,440,0,,0,0
648,Neufchâteau,Libramont-Chevigny,49.9181446,5.3740906,20155064,6800,House,HOUSE,189000,3,107,103,2,To renovate,0,0,0,,1,15,0,0
649,Saint-Nicolas,STEKENE,51.2302573,4.0121938,20228621,9190,House,HOUSE,189000,3,120,1500,4,Good,0,0,0,,1,30,0,0
650,Dinant,Rochefort,50.1565754,5.2206429,20244899,5580,House,HOUSE,192500,3,173,120,2,To be done up,0,0,1,53,0,,0,0
651,Liège,LIÈGE,50.6440542,5.540235699999999,20146629,4000,House,HOUSE,199000,4,149,243,2,Good,0,1,1,166,1,29,0,0
652,Liège,Seraing,50.59618039999999,5.487627199999999,20243127,4100,House,HOUSE,199000,4,46,146,2,Good,0,1,1,84,1,10,0,0
653,Liège,Liège Grivegnée,50.6177752,5.6056738,20011202,4030,House,HOUSE,200000,5,186,256,2,To be done up,0,1,1,124,1,12,0,0
654,Soignies,La Louvière Haine-Saint-Pierre,50.4574854,4.2004147,20333082,7100,Villa,HOUSE,195000,3,151,990,4,To be done up,0,0,0,,0,,0,0
655,Eeklo,Eeklo,51.1779675,3.5609884,20367295,9900,House,HOUSE,139000,3,131,200,3,,0,0,0,,0,,0,0
656,Saint-Nicolas,Lokeren,51.0949181,3.9922973,20346404,9160,House,HOUSE,195000,3,173,87,2,Good,0,0,0,,0,,0,0
657,Saint-Nicolas,BEVEREN,51.2251777,4.2458326,20319201,9120,House,HOUSE,114000,1,50,194,2,To renovate,0,0,0,,0,,0,0
658,Charleroi,CHARLEROI,50.4214628,4.445952699999999,20319508,6000,House,HOUSE,165000,1,70,125,4,Good,0,0,0,,0,,0,0
659,Turnhout,HERENTALS,51.17683520000001,4.821149999999999,20318639,2200,House,HOUSE,199000,2,150,99,2,Good,0,0,0,,0,,0,0
660,Turnhout,HERENTALS,51.17683520000001,4.821149999999999,20318614,2200,Apartment_Block,HOUSE,199000,2,150,99,2,Good,0,0,0,,0,,0,0
661,Neufchâteau,Hatrival,50.0037258,5.348103,20341708,6870,Town_House,HOUSE,199000,3,189,1545,4,,0,0,0,,0,,0,0
662,Neufchâteau,PALISEUL,49.8941909,5.1161471,20294525,6850,House,HOUSE,165000,3,150,335,3,Good,0,1,0,,0,,0,0
663,Termonde,Schellebelle,51.0119668,3.930822,20348599,9260,House,HOUSE,168500,3,200,,2,To renovate,0,0,1,350,1,20,0,0
664,Alost,Herzele Ressegem,50.8912448,3.9140361,20347705,9551,House,HOUSE,170000,2,146,347,3,,0,0,1,187,1,24,0,0
665,Charleroi,Manage,50.4766027,4.2352424,20329940,7170,House,HOUSE,95000,2,103,190,2,To be done up,0,0,0,,0,,0,0
666,Thuin,Marpent,50.2934259,4.0788,20312736,6560,Apartment_Block,HOUSE,85000,5,167,435,3,Good,0,0,0,,0,,1,0
667,Huy,Huy,50.51636629999999,5.2381106,20312875,4500,House,HOUSE,129500,5,180,75,2,To be done up,0,0,0,,0,,0,0
668,Mons,Mons Jemappes,50.44420909999999,3.8732842,20264614,7012,House,HOUSE,149500,3,101,94,4,Good,0,0,1,37,1,15,0,0
669,Audenarde,Ronse,50.7443719,3.6144757,20342303,9600,House,HOUSE,149900,3,,220,,To renovate,0,0,0,,0,,0,0
670,Philippeville,Cerfontaine,50.1693971,4.4116997,20324169,5630,House,HOUSE,90000,3,152,120,3,,0,0,0,,1,8,0,0
671,Liège,Ans,50.66370449999999,5.5067233,20358842,4430,House,HOUSE,189000,5,120,,2,To renovate,0,0,0,,0,,0,0
672,Gand,Ertvelde,51.1757692,3.7672192,20356696,9940,House,HOUSE,189000,2,104,430,3,To renovate,0,0,0,,0,,0,0
673,Mons,Quaregnon,50.442277,3.859927,20298319,7390,House,HOUSE,85000,3,90,107,2,To renovate,0,0,1,30,1,17,0,0
674,Charleroi,Charleroi Gilly,50.4157804,4.4885069,20295657,6060,House,HOUSE,119000,3,122,115,3,To renovate,0,0,0,,1,25,0,0
675,Ypres,Wervik,50.78160829999999,3.0478785,20349507,8940,House,HOUSE,169000,3,149,70,2,To restore,0,0,0,,0,,0,0
676,Ostende,De Haan,51.25343669999999,2.9994588,20345121,8420,House,HOUSE,195000,2,64,,3,Good,0,0,0,,0,,0,0
677,Huy,MARCHIN,50.5004802,5.2398999,20281774,4570,House,HOUSE,119000,2,88,130,2,,0,0,0,,0,,0,0
678,Huy,AMAY,50.5467976,5.319143899999999,20306013,4540,House,HOUSE,159000,2,80,32,3,,0,0,0,,0,,0,0
679,Waremme,Fumal,50.5865308,5.1827754,20291162,4260,House,HOUSE,169000,5,186,655,3,,0,0,0,,0,,0,0
680,Charleroi,Pont-de-Loup,50.4132563,4.551912,20265833,6250,House,HOUSE,169000,4,155,290,2,Good,0,1,0,,0,,0,0
681,Liège,SAINT-NICOLAS,50.6264572,5.543341100000001,20330025,4420,House,HOUSE,176000,3,125,120,2,To renovate,0,0,0,,0,,0,0
682,Liège,Ans,50.6592005,5.5038315,20319860,4430,House,HOUSE,194000,2,132,184,3,Good,0,0,0,,0,,0,0
683,Mons,Baudour,50.4862619,3.8368719,20313848,7331,House,HOUSE,195000,3,126,667,4,Good,0,0,1,391,1,8,0,0
684,Dinant,Dinant,50.2490377,4.9201295,20297668,5500,Town_House,HOUSE,198000,3,125,51,,Just renovated,0,0,0,,0,,0,0
685,Waremme,Fumal,50.5865308,5.1827754,20291163,4260,House,HOUSE,199000,5,186,966,3,,0,0,0,,0,,0,0
686,Liège,Saint-Nicolas,50.6257056,5.5455709,20298252,4420,House,HOUSE,199000,4,169,110,2,To renovate,0,1,0,,1,46,1,0
687,Liège,Blégny,50.6718425,5.7267016,20317904,4670,House,HOUSE,199000,5,246,568,4,To renovate,0,0,1,269,0,,0,0
688,Charleroi,Marchienne-au-pont,50.4214282,4.4160956,20313262,6030,House,HOUSE,155000,2,117,71,2,Good,0,1,0,,1,10,0,0
689,Charleroi,CHÂTELET,50.4038201,4.526417599999999,20361788,6200,Mixed_Use_Building,HOUSE,170000,2,150,,2,Good,0,0,0,,0,,0,0
690,Alost,Geraardsbergen,50.77647760000001,3.8745664,20339754,9500,House,HOUSE,170000,2,125,243,2,,0,0,1,126,1,17,0,0
691,Charleroi,ROUX,50.4420903,4.4006321,20189513,6044,House,HOUSE,69000,4,118,330,2,To renovate,0,0,1,220,0,,0,0
692,Mons,Frameries,50.4154096,3.901615899999999,11449344,7080,House,HOUSE,80000,2,100,320,2,To be done up,0,0,1,150,1,10,0,0
693,Neufchâteau,WELLIN,50.077634,5.1483715,20105259,6920,House,HOUSE,99900,3,144,259,4,To renovate,0,0,0,,0,,0,0
694,Liège,Liège,50.618042,5.58655,20164254,4031,House,HOUSE,115000,2,105,110,2,To renovate,0,0,1,25,1,60,0,0
695,Alost,Aalst,50.9330647,4.0437904,20227431,9300,House,HOUSE,119000,3,130,80,2,To renovate,0,0,1,30,1,30,0,0
696,Liège,Jemeppe-sur-Meuse,50.6215196,5.489869,20255602,4101,House,HOUSE,129000,4,123,135,2,Good,0,0,1,41,1,20,0,0
697,Liège,SAINT-NICOLAS,50.6297716,5.5134253,20074493,4420,House,HOUSE,139000,3,116,275,2,Good,0,0,1,130,1,30,0,0
698,Liège,Ans,50.6653578,5.516832099999999,20096396,4432,House,HOUSE,145000,3,120,420,2,To renovate,0,0,1,322,1,20,0,0
699,Liège,VIVEGNIS,50.7058099,5.661372999999999,20069684,4683,House,HOUSE,145000,2,87,300,2,To be done up,0,0,0,,0,,0,0
700,Dinant,Rochefort,50.1625016,5.2602351,20251655,5580,House,HOUSE,149000,4,305,301,3,To be done up,0,0,0,,1,16,0,0
701,Neufchâteau,Paliseul,49.90370129999999,5.1339951,20071765,6850,Mixed_Use_Building,HOUSE,149900,1,200,75,2,To renovate,0,0,0,,0,,0,0
702,Virton,Tintigny,49.71883709999999,5.491482400000001,20006021,6730,House,HOUSE,160000,3,120,480,4,To renovate,0,1,1,400,1,25,0,0
703,Namur,Namur,50.439225,4.8585661,20266531,5000,Bungalow,HOUSE,165000,1,56,51,3,Good,0,0,1,51,1,8,0,0
704,Audenarde,Ronse,50.74349549999999,3.6297062,20110067,9600,House,HOUSE,165000,3,175,1559,3,To renovate,0,0,0,,0,,0,0
705,Liège,GRIVEGNÉE,50.6173326,5.606933499999999,20246263,4030,House,HOUSE,169900,2,79,36,2,Good,0,1,0,,0,,0,0
706,Tielt,Wielsbeke,50.9086376,3.3681229,20198367,8710,House,HOUSE,178000,2,136,311,,To renovate,0,0,0,,0,,0,0
707,Liège,GRÂCE-HOLLOGNE,50.6333479,5.495017499999999,20120444,4460,House,HOUSE,179000,3,105,445,3,Just renovated,0,1,1,40,1,17,0,0
708,Marche-En-Famenne,Nassogne,50.1647684,5.4109931,11317146,6951,House,HOUSE,179000,4,158,471,3,Good,0,1,1,471,0,,0,0
709,Hal-Vilvorde,Affligem,50.9155147,4.1192281,20012425,1790,House,HOUSE,189000,3,119,333,3,To renovate,0,0,1,220,0,,0,0
710,Liège,Fléron,50.60974119999999,5.6667264,20147823,4624,House,HOUSE,189000,2,90,80,3,Good,0,1,0,,0,,0,0
711,Audenarde,RONSE,50.7494051,3.5881228,10921609,9600,House,HOUSE,189000,3,240,260,2,Good,0,0,0,,0,,0,0
712,Liège,Herstal,50.662615,5.6312788,20280855,4040,House,HOUSE,190000,3,117,331,3,Just renovated,0,1,1,118,1,30,0,0
713,Turnhout,TURNHOUT,51.3320119,4.9569076,20144430,2300,House,HOUSE,195000,2,128,133,2,To be done up,0,0,0,,0,,0,0
714,Liège,Chaudfontaine,50.6006004,5.633794099999999,20148821,4051,House,HOUSE,195000,4,134,147,2,Just renovated,0,1,1,55,1,15,0,0
715,Louvain,LEUVEN,50.8984622,4.7328584,20283651,3010,House,HOUSE,199000,3,93,129,3,To be done up,0,0,0,,1,3,0,0
716,Liège,Soumagne,50.6104025,5.711246099999999,20055093,4630,House,HOUSE,199000,3,132,528,3,Good,0,1,1,420,1,17,0,0
717,Courtrai,Menen,50.7891851,3.1413124,20355412,8930,House,HOUSE,119000,3,97,104,2,To be done up,0,1,1,50,0,,0,0
718,Audenarde,Oudenaarde,50.8402154,3.6082491,20071180,9700,House,HOUSE,149500,3,158,106,3,,0,0,0,,0,,0,0
719,Soignies,Soignies,,,20350137,7060,House,HOUSE,170000,4,166,865,3,To renovate,0,0,0,,0,,0,0
720,Tournai,Tournai Rumillies,50.6176986,3.4133889,20365533,7540,House,HOUSE,89000,2,,,2,To renovate,0,1,0,,0,,0,0
721,Alost,GERAARDSBERGEN,50.7708242,3.8834185,20345306,9500,House,HOUSE,150000,4,162,60,2,Good,0,0,0,,0,,0,0
722,Liège,Saint-Nicolas,50.6392003,5.526822999999999,20017606,4420,House,HOUSE,155000,3,106,333,2,To renovate,0,1,1,180,1,10,0,0
723,Anvers,Merksem,51.2387559,4.4417349,20318529,2170,House,HOUSE,199000,3,104,53,2,To be done up,0,0,0,,0,,0,0
724,Courtrai,Gullegem,50.8502003,3.2050762,20316715,8560,House,HOUSE,199000,3,155,151,,Just renovated,0,0,0,,0,,0,0
725,Verviers,Pepinster,50.56689950000001,5.803837499999999,20348757,4860,House,HOUSE,79000,2,,130,4,To renovate,0,0,0,,0,,0,0
726,Alost,Geraardsbergen,50.77274689999999,3.8818056,20347131,9500,House,HOUSE,139000,4,150,60,2,To be done up,0,0,0,,1,20,0,0
727,Courtrai,Deerlijk,50.8531564,3.3613519,20347505,8540,House,HOUSE,165000,2,121,134,3,As new,0,0,0,,0,,0,0
728,Dixmude,Kortemark,51.0285912,3.0455441,20348741,8610,House,HOUSE,175000,1,93,243,2,Just renovated,0,1,1,77,0,,1,0
729,Mons,Wasmes,50.4059523,3.835990799999999,20300890,7340,House,HOUSE,139000,2,100,570,2,Good,0,1,1,450,1,33,0,0
730,Courtrai,Kortrijk,50.8409831,3.2559666,20362409,8501,House,HOUSE,99000,2,117,54,2,,0,0,0,,0,,0,0
731,Ostende,Ichtegem,51.1066376,3.037656,20302606,8480,House,HOUSE,179000,4,122,571,,To renovate,0,0,0,,0,,0,0
732,Alost,AALST,50.942866,4.0351446,20303039,9300,House,HOUSE,179000,2,119,50,2,To be done up,0,0,0,,0,,0,0
733,Dixmude,Koekelare,51.091283,2.9727591,20342871,8680,House,HOUSE,149000,3,95,455,2,Good,0,0,0,,0,,0,0
734,Liège,Grâce-hollogne,,,20342359,4460,House,HOUSE,195000,4,210,171,2,Good,0,0,0,,1,16,0,0
735,Thuin,LEVAL-TRAHEGNIES,,,20358191,7134,House,HOUSE,165000,2,150,944,3,To be done up,0,0,0,,0,,0,0
736,Alost,Aalst Baardegem,50.9629961,4.1308345,20359427,9310,House,HOUSE,180000,2,99,321,2,Good,0,0,0,,0,,0,0
737,Ypres,Poperinge,50.8935219,2.6516958,20358066,8972,House,HOUSE,195000,4,290,489,3,Good,0,0,0,,0,,0,0
738,Soignies,La Louvière Houdeng-Goegnies,50.4790419,4.1594883,20071612,7110,House,HOUSE,135000,2,75,290,2,Good,0,0,1,245,0,,0,0
739,Bruges,Ruddervoorde,51.100579,3.1812232,20296104,8020,House,HOUSE,155000,2,112,293,,To renovate,0,0,0,,0,,0,0
740,Liège,Seraing,50.5835509,5.500849,20345945,4100,House,HOUSE,165000,2,92,268,3,,0,0,0,,1,21,0,0
741,Mouscron,Mouscron,,,20348409,7700,House,HOUSE,189000,5,167,195,2,Good,0,1,1,50,0,,0,0
742,Dinant,Dinant,50.2622594,4.9104845,20297656,5500,Town_House,HOUSE,180000,4,185,60,,Good,0,0,0,,0,,0,0
743,Namur,Sambreville,50.470251,4.6319019,20301225,5060,House,HOUSE,189000,3,177,1203,,To renovate,0,0,1,1203,0,,0,0
744,Louvain,Scherpenheuvel-Zichem,51.0120893,4.9984661,20306137,3271,House,HOUSE,195000,5,129,1020,3,To be done up,1,0,1,770,1,15,0,0
745,Liège,Wandre,50.6699046,5.657689,20305250,4020,House,HOUSE,135000,2,125,155,2,Good,0,0,0,,0,,0,0
746,Liège,Liège outremeuse,50.6384273,5.586699299999999,20181074,4020,Mixed_Use_Building,HOUSE,139900,1,100,47,2,To be done up,0,0,0,,0,,0,0
747,Huy,Amay,50.537662,5.32522,11141764,4540,House,HOUSE,79000,2,116,207,3,To renovate,0,0,0,,0,,0,0
748,Huy,MARCHIN,50.4984434,5.240768999999999,20280725,4570,House,HOUSE,79000,2,90,3155,,To renovate,0,0,1,3100,1,30,0,0
749,Liège,Seraing,50.5821781,5.509035,11432795,4100,House,HOUSE,99000,2,55,380,4,To restore,0,0,1,175,0,,0,0
750,Liège,Seraing,50.6053852,5.5153184,11431191,4100,House,HOUSE,99000,4,110,80,2,To be done up,0,0,0,,1,6,0,0
751,Charleroi,MONTIGNIES-SUR-SAMBRE,50.4096402,4.4729564,20256768,6061,House,HOUSE,110000,2,135,260,3,To renovate,0,0,0,,1,30,0,0
752,Liège,Liège Chênée,50.6064662,5.6186181,20276541,4032,House,HOUSE,115000,1,44,70,3,Good,0,1,1,50,0,,0,0
753,Hal-Vilvorde,ROOSDAAL,50.822154,4.1090469,20126682,1760,House,HOUSE,119000,2,79,101,2,To renovate,0,0,0,,0,,0,0
754,Liège,Seraing,50.6179906,5.4989057,20042971,4101,House,HOUSE,119000,3,96,120,2,To be done up,0,0,1,67,1,30,0,0
755,Liège,Saint-Nicolas,50.6293028,5.5423117,20026287,4420,House,HOUSE,119000,3,125,180,3,To restore,0,0,1,85,0,,0,0
756,Liège,Seraing,50.59946009999999,5.5112482,20219625,4100,Mixed_Use_Building,HOUSE,120000,1,60,51,2,Good,0,1,0,,1,8,0,0
757,Audenarde,Ronse,50.7497692,3.5928241,10860840,9600,House,HOUSE,125000,2,145,88,2,To be done up,0,1,0,,1,10,0,0
758,Huy,HUY,50.5274811,5.2235865,20250360,4500,House,HOUSE,129000,4,172,1600,2,Good,0,0,1,1600,1,30,0,0
759,Huy,FIZE-FONTAINE,50.5854055,5.2837982,20254477,4530,House,HOUSE,129000,1,105,240,2,Just renovated,0,1,1,98,1,20,0,0
760,Alost,Aalst,50.98815339999999,4.0511257,11418992,9300,House,HOUSE,129000,2,130,180,2,To renovate,0,0,0,,0,,0,0
761,Liège,Jupille-sur-meuse,50.6400825,5.6542655,10770690,4020,House,HOUSE,135000,2,76,87,3,To be done up,0,0,1,30,0,,0,0
762,Charleroi,Bouffioulx,50.3896923,4.516050799999999,20258214,6200,House,HOUSE,135000,2,80,48,2,To be done up,0,0,0,,0,,0,0
763,Audenarde,Ronse,50.7470214,3.6079001,11373359,9600,House,HOUSE,135000,2,88,40,2,Just renovated,0,0,0,,0,,0,0
764,Liège,Seraing,50.6048369,5.5157627,20184666,4100,Mixed_Use_Building,HOUSE,149000,3,260,280,2,To be done up,0,0,0,,0,,0,0
765,Audenarde,Brakel,50.8045736,3.7665098,20115764,9660,House,HOUSE,149000,3,184,397,2,To renovate,0,1,1,230,0,,0,0
766,Charleroi,Courcelles,50.4585521,4.382822,11280547,6180,House,HOUSE,149900,2,120,182,2,To be done up,0,0,0,,1,20,0,0
767,Liège,FLÉMALLE-HAUTE,50.5978638,5.470920599999999,20163852,4400,House,HOUSE,155000,3,108,186,2,To renovate,0,0,1,100,1,10,0,0
768,Courtrai,Harelbeke,50.859569,3.319747,20223057,8530,House,HOUSE,155000,3,127,143,2,Good,0,0,0,,0,,0,0
769,Mons,Frameries,50.413023,3.8963975,20264613,7080,House,HOUSE,157500,4,115,111,2,Good,0,0,1,30,1,10,0,0
770,Liège,Sprimont,50.48603079999999,5.670478399999999,20212242,4140,House,HOUSE,159000,3,96,179,3,Good,0,0,1,74,1,7,0,0
771,Waremme,OREYE,50.72066659999999,5.352767699999999,11319241,4360,House,HOUSE,159000,2,137,353,4,Good,0,0,0,,1,33,0,0
772,Liège,Montegnée,50.627714,5.5192875,20239427,4420,House,HOUSE,159000,2,120,100,3,Good,0,0,0,,0,,0,0
773,Malines,BORNEM,51.0919686,4.2217364,11092221,2880,House,HOUSE,160000,3,118,345,2,To renovate,0,1,1,263,0,,0,0
774,Liège,Liège,50.6613189,5.5986202,20044115,4000,House,HOUSE,165000,2,73,138,2,To be done up,0,0,1,69,1,11,0,0
775,Charleroi,JUMET,50.4362554,4.4114011,11487794,6040,House,HOUSE,169000,2,95,250,2,To renovate,0,0,0,,0,,0,0
776,Liège,Liège,50.6214795,5.6100918,20026338,4030,House,HOUSE,169500,2,103,93,2,Good,0,1,0,,1,40,0,0
777,Malines,Willebroek,51.069483,4.359452900000001,11329527,2830,House,HOUSE,170000,2,113,283,4,To renovate,0,0,0,,0,,0,0
778,Dinant,JEMELLE,50.1626421,5.260373,20025936,5580,House,HOUSE,170000,3,105,150,3,Good,0,1,1,40,1,40,0,0
779,Ostende,Oostende,51.2318755,2.9211131,20063821,8400,House,HOUSE,170000,4,151,44,2,To be done up,0,0,0,,0,,0,0
780,Nivelles,Jandrain-jandrenouille,50.6750082,4.9799142,11392779,1350,House,HOUSE,175000,4,278,1142,3,To renovate,0,0,1,943,0,,0,0
781,Alost,Geraardsbergen,50.7734421,3.8877937,20044167,9500,House,HOUSE,179000,3,90,49,3,As new,0,1,0,,0,,0,0
782,Tournai,Estaimpuis,50.705869,3.3146677,20239730,7730,House,HOUSE,185000,2,134,264,2,To be done up,0,0,1,130,1,12,0,0
783,Liège,Chaudfontaine,50.602123,5.63111,20073250,4051,House,HOUSE,189000,3,120,93,2,Good,0,0,0,,1,30,0,0
784,Turnhout,TURNHOUT,51.3239639,4.9296852,20226040,2300,House,HOUSE,195000,3,127,270,2,To renovate,0,0,0,,0,,0,0
785,Huy,Modave,50.4569191,5.2972809,20011235,4577,House,HOUSE,195000,2,154,954,3,To be done up,0,1,1,838,1,25,0,0
786,Liège,Herstal,50.674286,5.637922,20117124,4040,House,HOUSE,199000,3,145,205,4,Good,0,1,1,60,1,34,0,0
787,Liège,Seraing,50.6057227,5.5117226,20275240,4100,House,HOUSE,199000,4,160,92,2,Just renovated,0,1,0,,1,9,0,0
788,Huy,Xhoris,50.4434493,5.6019061,20249661,4190,House,HOUSE,199000,3,160,250,3,To renovate,0,1,0,,0,,0,0
789,Huy,Engis,50.58180609999999,5.3989071,20227676,4480,House,HOUSE,199000,4,127,468,3,Good,0,1,1,287,1,108,0,0
790,Verviers,Verviers,50.583855,5.868253,20097205,4800,House,HOUSE,199000,3,135,111,2,Good,0,1,1,27,1,27,0,0
791,Marche-En-Famenne,Nassogne,50.1315553,5.3437116,20111541,6950,House,HOUSE,199000,3,100,612,4,Good,0,1,1,612,0,,0,0
792,Charleroi,Pont-à-Celles,50.4969534,4.38985,11122756,6230,House,HOUSE,199900,3,200,740,3,To be done up,0,0,1,100,1,20,0,0
793,Liège,Soumagne,50.6313792,5.7120557,20087461,4630,House,HOUSE,200000,3,120,279,3,Good,0,0,1,100,1,20,0,0
794,Thuin,Chimay,50.04653279999999,4.3135317,20114263,6460,House,HOUSE,200000,3,140,480,4,Good,0,0,1,480,1,10,0,0
795,Bruges,Blankenberge,51.3112127,3.1306956,20353622,8370,House,HOUSE,150000,3,140,63,2,To renovate,0,1,0,,1,20,0,0
796,Mouscron,Herseaux,,,20356012,7712,House,HOUSE,159000,3,118,383,2,Good,0,1,1,280,0,,0,0
797,Charleroi,GERPINNES,,,20355156,6280,Villa,HOUSE,199000,2,115,1800,4,,0,0,0,,0,,0,0
798,Termonde,Dendermonde Baasrode,51.0378024,4.165846999999999,20355719,9200,House,HOUSE,199000,3,181,218,2,To renovate,0,0,0,,0,,0,0
799,Liège,Grâce-Hollogne,50.6265058,5.4866639,20330901,4460,House,HOUSE,199000,3,144,60,2,,0,1,1,90,1,15,0,0
800,Termonde,Buggenhout,51.0294994,4.1875545,20342961,9255,House,HOUSE,199000,3,124,569,2,To renovate,0,0,0,,0,,0,0
801,Huy,ENGIS,50.585339,5.4026399,20206441,4480,House,HOUSE,199000,4,131,376,3,Good,0,1,1,136,1,45,0,0
802,Ypres,WERVIK,50.7870313,3.0455016,20319523,8940,House,HOUSE,115000,2,115,257,,To renovate,0,0,1,105,1,40,0,0
803,Liège,FLÉMALLE,50.5998791,5.4614345,20320728,4400,House,HOUSE,165000,3,98,,3,To be done up,0,0,0,,1,16,0,0
804,Eeklo,Eeklo,51.1829396,3.5688741,20316178,9900,House,HOUSE,165000,2,82,50,,Good,0,1,0,,0,,0,0
805,Ath,MOUSTIER,50.6498751,3.6457908,20340029,7911,House,HOUSE,175000,2,75,364,,Good,0,0,0,,0,,0,0
806,Alost,AALST,50.9427027,4.0313269,20353497,9300,House,HOUSE,175000,4,175,70,2,Good,0,1,0,,1,10,0,0
807,Ath,ANVAING,50.7078584,3.5985467,20331437,7910,Mixed_Use_Building,HOUSE,199000,3,198,417,4,Good,0,1,0,,0,,0,0
808,Furnes,Oostduinkerke,51.1303184,2.7122567,20117574,8670,House,HOUSE,199000,2,52,186,,,0,0,0,,0,,1,0
809,Turnhout,Poppel,51.4431924,5.0827802,20323806,2382,Chalet,HOUSE,84000,1,52,210,4,,0,1,0,,0,,0,0
810,Thuin,PÉRONNES-LEZ-BINCHE,,,20358193,7134,House,HOUSE,140000,2,146,469,2,Good,0,0,0,,0,,0,0
811,Mons,MONTIGNIES-SUR-ROC,,,20357597,7387,House,HOUSE,150000,3,152,670,3,To be done up,0,0,0,,0,,0,0
812,Alost,Geraardsbergen,50.7677022,3.8825307,20335072,9500,House,HOUSE,149000,3,140,160,2,Good,0,1,1,80,1,10,0,0
813,Charleroi,Charleroi Couillet,50.3794578,4.460304499999999,20298752,6010,House,HOUSE,150000,4,121,420,4,To renovate,0,0,1,320,0,,0,0
814,Dinant,BEAURAING,50.1340531,4.817959399999999,20311392,5570,House,HOUSE,109000,3,80,141,3,To restore,1,0,0,,0,,0,0
815,Waremme,Saint-Georges-Sur-Meuse,50.5840583,5.3585533,20316828,4470,House,HOUSE,135000,2,85,265,2,,0,0,1,180,0,,0,0
816,Termonde,Wichelen Schellebelle,51.0117117,3.9288122,20322844,9260,House,HOUSE,139000,3,110,120,2,To renovate,0,0,0,,0,,0,0
817,Huy,HUY,50.5191907,5.2409392,20265890,4500,Mixed_Use_Building,HOUSE,165000,1,110,46,2,,0,0,0,,0,,0,0
818,Charleroi,Chapelle-lez-Herlaimont,50.4720693,4.2881978,20130592,7160,House,HOUSE,189000,2,160,232,3,To be done up,0,1,0,,0,,0,0
819,Mons,Roisin,50.3324469,3.6945131,20274519,7387,House,HOUSE,195000,3,122,170,3,Good,0,0,0,,0,,0,0
820,Termonde,Wetteren,51.0151167,3.8813118,20312364,9230,House,HOUSE,195000,3,128,80,2,To renovate,0,1,0,,0,,0,0
821,Soignies,La Louvière Saint-Vaast,50.46198520000001,4.1654078,20305368,7100,House,HOUSE,149000,3,120,165,3,Good,0,1,0,,0,,0,0
822,Thuin,Morlanwelz Carnières,50.4479007,4.2609952,20255746,7141,House,HOUSE,199000,4,189,240,3,Good,0,1,0,,0,,0,0
823,Liège,Grace-Hollogne,50.6295149,5.4939965,20188582,4460,House,HOUSE,65000,3,91,275,3,To renovate,0,0,1,40,0,,0,0
824,Mons,BAUDOUR,50.48317160000001,3.8417324,11379400,7331,House,HOUSE,79000,2,70,280,2,Good,0,1,0,,0,,0,0
825,Dinant,Rochefort,50.157145,5.2240464,20091013,5580,House,HOUSE,85000,2,83,62,2,To renovate,0,0,0,,0,,0,0
826,Liège,Liège,50.6553142,5.6070306,20103436,4000,House,HOUSE,89000,1,100,74,2,To renovate,0,0,1,30,0,,0,0
827,Liège,Seraing,50.6060942,5.5146171,20069793,4100,House,HOUSE,99000,4,203,106,2,To renovate,0,0,0,,1,8,0,0
828,Liège,Liège,50.6114764,5.5390182,11468187,4000,House,HOUSE,105000,2,70,62,2,To renovate,0,0,0,,0,,0,0
829,Liège,Seraing,50.6017449,5.5378565,20160984,4102,House,HOUSE,109000,3,115,290,2,To renovate,0,0,1,172,1,30,0,0
830,Liège,Jupille-sur-Meuse,50.6373474,5.656394199999999,20135887,4020,House,HOUSE,110000,3,117,135,3,To renovate,0,1,0,,0,,0,0
831,Dinant,Rochefort,50.1601708,5.264135899999999,20219578,5580,House,HOUSE,115000,3,99,110,2,Good,0,0,0,,1,40,0,0
832,Liège,SERAING,50.5992949,5.5133164,20099398,4100,House,HOUSE,120000,4,96,559,2,To renovate,0,0,1,450,1,5,0,0
833,Mons,Boussu,50.4137322,3.7911436,11283271,7300,Mixed_Use_Building,HOUSE,125000,10,300,280,4,To renovate,0,0,1,100,1,30,0,0
834,Liège,Liège,50.6404407,5.598083099999999,20047190,4020,House,HOUSE,129000,4,145,54,2,To be done up,0,0,0,,0,,0,1
835,Liège,Liege,50.6593082,5.5693095,20223623,4000,House,HOUSE,133000,3,100,93,2,To be done up,0,0,1,52,0,,0,0
836,Liège,Seraing,50.6069427,5.5119007,20052545,4100,House,HOUSE,134000,3,135,144,3,To renovate,0,0,1,81,1,30,0,0
837,Charleroi,Bouffioulx,50.3885046,4.5162449,20258213,6200,House,HOUSE,134000,3,89,340,2,To be done up,0,0,0,,1,5,0,0
838,Charleroi,Bouffioulx,50.388547,4.5162171,20258212,6200,House,HOUSE,138000,3,98,340,3,To be done up,0,0,0,,0,,0,0
839,Huy,Engis,50.5802455,5.397918,20064111,4480,House,HOUSE,139000,2,149,132,3,Good,0,0,0,,0,,0,0
840,Audenarde,Ronse,50.7479509,3.5992283,20201497,9600,House,HOUSE,145000,2,130,130,4,To renovate,0,0,0,,0,,0,0
841,Huy,Amay,50.5524599,5.3263872,20013955,4540,House,HOUSE,149000,4,180,482,3,To renovate,0,0,1,269,0,,0,0
842,Charleroi,Bouffioulx,50.3946422,4.5277105,20076644,6200,House,HOUSE,149000,2,96,118,2,Good,0,0,1,62,1,6,0,0
843,Dixmude,Zarren,51.0197683,2.9585502,20264108,8610,House,HOUSE,149000,3,110,268,,To renovate,0,1,0,,0,,0,0
844,Neufchâteau,Tellin,50.0844987,5.216630299999999,20119325,6927,House,HOUSE,149900,3,130,280,4,To renovate,0,1,0,,0,,0,0
845,Liège,Liège,50.66403709999999,5.596095,20280332,4000,House,HOUSE,150000,1,98,82,2,To renovate,0,0,0,,0,,0,0
846,Huy,Huy,50.5206853,5.222769,20062224,4500,House,HOUSE,150000,4,147,977,3,To be done up,0,1,1,830,0,,0,0
847,Mons,Colfontaine Pâturages,50.4106947,3.866807,20071597,7340,House,HOUSE,157000,3,214,310,2,Good,0,0,1,200,1,20,0,0
848,Roulers,Izegem,50.91036709999999,3.2314023,20109698,8870,House,HOUSE,159000,2,151,256,,To renovate,0,0,0,,0,,0,0
849,Liège,Liège Jupillesur-Meuse,50.64441009999999,5.623381699999999,20182388,4020,Town_House,HOUSE,159900,2,106,194,2,To be done up,0,0,0,,1,13,0,0
850,Tournai,Tournai,50.6040259,3.3838997,20260315,7500,House,HOUSE,160000,3,190,110,2,To be done up,0,0,0,,0,,0,0
851,Liège,SERAING,50.60390169999999,5.495682899999999,20010413,4100,House,HOUSE,165000,3,82,150,2,Just renovated,0,0,1,63,0,,0,0
852,Neufchâteau,Paliseul,49.9036226,5.133926,20071764,6850,Mixed_Use_Building,HOUSE,165900,3,205,80,2,To renovate,0,0,0,,1,3,0,0
853,Liège,Herstal,50.6690976,5.6224894,20223277,4040,House,HOUSE,169000,2,95,252,3,To be done up,0,1,0,,1,20,0,0
854,Charleroi,Farciennes,50.4376944,4.5412459,20098604,6240,House,HOUSE,170000,2,81,400,3,Good,0,1,1,329,0,,0,0
855,Huy,Engis,50.5813333,5.3977112,20222839,4480,House,HOUSE,174000,2,104,1069,3,Good,0,1,1,960,1,42,0,0
856,Huy,Vierset-barse,50.4933309,5.252144599999999,20090906,4577,House,HOUSE,174000,2,123,327,3,Good,0,1,0,,1,10,0,0
857,Huy,Hamoir,50.4471076,5.5537151,20198656,4180,House,HOUSE,175000,1,60,1696,4,To be done up,0,0,1,1575,1,68,0,0
858,Liège,ANS,50.6663092,5.5055522,20272359,4431,House,HOUSE,175000,2,150,288,3,To renovate,0,0,1,194,0,,0,0
859,Waremme,SAINT-GEORGES-SUR-MEUSE,50.5930624,5.386372499999999,11402390,4470,House,HOUSE,175000,2,95,260,3,To renovate,0,0,1,120,0,,0,0
860,Liège,Seraing,50.6048441,5.5145348,11434794,4100,House,HOUSE,179000,4,104,53,2,Good,0,1,1,105,0,,0,0
861,Liège,JEMEPPE,50.6126867,5.4974708,10829680,4101,House,HOUSE,179000,4,200,155,,To renovate,0,0,1,45,1,15,0,0
862,Liège,Beyne-Heusay,50.62952929999999,5.645435000000001,11413456,4610,House,HOUSE,179000,3,115,135,2,To be done up,0,1,0,,1,20,0,0
863,Liège,Herstal,50.65769299999999,5.6186095,20241850,4040,House,HOUSE,185000,3,112,110,2,Good,0,1,1,12,1,20,0,0
864,Charleroi,Jumet,50.4361323,4.4068016,20287490,6040,House,HOUSE,185000,3,111,878,3,Good,0,0,1,402,1,40,0,0
865,Neufchâteau,Opont,49.9349189,5.1168312,20180706,6852,House,HOUSE,185000,4,185,442,3,Good,0,0,1,120,1,30,0,0
866,Audenarde,Oudenaarde,50.8450016,3.6029663,11140475,9700,Mixed_Use_Building,HOUSE,185000,5,175,80,2,To renovate,0,0,0,,0,,0,0
867,Liège,HERSTAL,50.6718214,5.630498900000001,11440824,4040,House,HOUSE,188000,2,142,222,3,To be done up,0,0,0,,1,13,0,0
868,Waremme,Braives Ciplet,50.61906010000001,5.0917077,11487806,4260,House,HOUSE,189000,3,152,498,3,To renovate,0,0,1,355,1,50,0,0
